[{"service_request_id":"101001123954","status":"closed","status_notes":"Case Closed. Case Invalid. no graffiti.","service_name":"Other","service_code":"4f38920fe75084437f0001a0","description":"Power wash sidewalk under bridge","requested_datetime":"2014-07-08T13:41:44-04:00","updated_datetime":"2014-07-09T08:46:09-04:00","address":"309 A St, Boston","lat":42.34899044040809,"long":-71.04938177398503},
{"service_request_id":"101001120039","status":"closed","status_notes":"Case Closed. Case Resolved. This section of roadway is on the resurfacing list but utility companies have plans to dig the street, so the city will not repave the street until that work is completed.","service_name":"Other","service_code":"4f38920fe75084437f0001a0","description":"Asphalt on south side of Bennington street between Swift and Neptune streets is being replaced. Entire north side asphalt from Neptune to Saratoga street,Orient Heights was replaced a few years ago. Entire south side of Bennington Street needs to be replaced, not just between Swift and Neptune. Due to daily use by morning commuters from the north, repair of ENTIRE South side of Bennington Street is long overdue. Thank you, Mr. Mayor.","requested_datetime":"2014-07-02T08:18:17-04:00","updated_datetime":"2014-07-09T08:32:24-04:00","address":"591 Bennington St, Boston","lat":42.38293259217853,"long":-71.017146399079},
{"service_request_id":"101001123602","status":"closed","status_notes":"Case Closed. Case Resolved. Ticket was issued on 7-8-14 by Officer Dorosario.","service_name":"Other","service_code":"4f38920fe75084437f0001a0","description":"Tedeschis at Gibson St Fields Corner is a disgusting mess! Has been this way for days, rats are infesting!!","requested_datetime":"2014-07-08T10:09:13-04:00","updated_datetime":"2014-07-09T07:23:57-04:00","address":"1\u20139 Gibson St, Boston","lat":42.29723854023829,"long":-71.06075363465642},
{"service_request_id":"101001123108","status":"closed","status_notes":"Case Closed. Case Resolved. Officer Blackmore found no violation on 7-8-14.","service_name":"Other","service_code":"4f38920fe75084437f0001a0","description":"Trash out a week ahead of pick up\n\nThis property frequently leaves trash out ahead significantly ahead of pick up. #13 Cranston","requested_datetime":"2014-07-07T17:14:29-04:00","updated_datetime":"2014-07-09T07:20:01-04:00","address":"13 Cranston St, Boston","lat":42.32106219049759,"long":-71.10928011133439},
{"service_request_id":"101001122896","status":"closed","status_notes":"Case Closed. Case Resolved. Ticket was issued on 7-8-14 by Officer Dao.","service_name":"Other","service_code":"4f38920fe75084437f0001a0","description":"TVs dumped on West Springfield street by tenants development corporation","requested_datetime":"2014-07-07T14:09:01-04:00","updated_datetime":"2014-07-09T07:15:49-04:00","address":"556 Massachusetts Ave, Boston","lat":42.33838339340159,"long":-71.07817822142604},
{"service_request_id":"101001123074","status":"closed","status_notes":"Case Closed. Case Resolved. Ticket was issued on 7-8-14 by Officer Dao.","service_name":"Other","service_code":"4f38920fe75084437f0001a0","description":"Garbage on sidewalk. Also in front of 3 Phillips","requested_datetime":"2014-07-07T16:14:39-04:00","updated_datetime":"2014-07-09T07:15:19-04:00","address":"5-5A Phillips St, Boston","lat":42.36046442765962,"long":-71.06664891361358},
{"service_request_id":"101001123017","status":"closed","status_notes":"Case Closed. Case Resolved. Officer Welch found no violation on 7-8-14.","service_name":"Other","service_code":"4f38920fe75084437f0001a0","description":"Trash dumped on sidewalk","requested_datetime":"2014-07-07T15:24:47-04:00","updated_datetime":"2014-07-09T07:02:28-04:00","address":"215 I St Boston, MA 02127","lat":42.330925,"long":-71.039838},
{"service_request_id":"101001123772","status":"closed","status_notes":"Case Closed. Case Resolved. Officer Welch found no violation on 7-8-14.","service_name":"Other","service_code":"4f38920fe75084437f0001a0","description":"Been out there since last Wednesday. When does the city just take it away?","requested_datetime":"2014-07-08T11:53:38-04:00","updated_datetime":"2014-07-09T07:01:35-04:00","address":"1-99 Payson Pl Boston, MA 02129","lat":42.377208,"long":-71.063877},
{"service_request_id":"101001123708","status":"closed","status_notes":"Case Closed. Case Resolved. Ticket was issued on 7-8-14 by Officer Welch.","service_name":"Other","service_code":"4f38920fe75084437f0001a0","description":"312 -14 meridian st \nGarbage being place behind 396-10 meridian st also adjacent to 2 Lexington st \nThere should be no trash in this alley per owner 306 meridian st condos","requested_datetime":"2014-07-08T11:04:37-04:00","updated_datetime":"2014-07-09T07:00:51-04:00","address":"2\u201310 Lexington St, Boston","lat":42.37718096330929,"long":-71.03923665366321},
{"service_request_id":"101001122722","status":"closed","status_notes":"Case Closed. Case Resolved. Ticket was issued on 7-8-14 by Officer O'Keefe.","service_name":"Other","service_code":"4f38920fe75084437f0001a0","description":"Overgrown weeds and trash","requested_datetime":"2014-07-07T11:52:35-04:00","updated_datetime":"2014-07-09T06:56:45-04:00","address":"483\u2013499 Norfolk St, Boston","lat":42.27976526603315,"long":-71.08892641968195},
{"service_request_id":"101001123045","status":"closed","status_notes":"Case Closed. Case Resolved. Officer O'Keefe found no violation on 7-8-14.","service_name":"Other","service_code":"4f38920fe75084437f0001a0","description":"House at 72 Rockland st Roxbury covering sidewalk with thrash even tho they got ticketed last week for the same thing.","requested_datetime":"2014-07-07T15:44:02-04:00","updated_datetime":"2014-07-09T06:53:35-04:00","address":"80-82 Rockland St, Boston","lat":42.32236021202274,"long":-71.08727216727202},
{"service_request_id":"101001123119","status":"closed","status_notes":"Case Closed. Case Resolved. TRUCK TAGGED FOR OVERNIGHT COMMERCIAL.","service_name":"Other","service_code":"4f38920fe75084437f0001a0","description":"Rental truck parked here for several days in a visitor spot without moving and has not been ticketed.  Please ticket.","requested_datetime":"2014-07-07T17:38:24-04:00","updated_datetime":"2014-07-09T02:56:22-04:00","address":"159 Worcester St, Boston","lat":42.34152220659176,"long":-71.08015450655583},
{"service_request_id":"101001123135","status":"closed","status_notes":"Case Closed. Case Referred to External Agency. GIVEN TO THE TOW SUPERVISOR.","service_name":"Other","service_code":"4f38920fe75084437f0001a0","description":"Please remove this abandoned scooter!  It blocks the street and sidewalk and is unsightly. Thank you.","requested_datetime":"2014-07-07T18:10:31-04:00","updated_datetime":"2014-07-09T02:55:49-04:00","address":"37 W Cedar St, Boston","lat":42.3591388756404,"long":-71.06990172600864},
{"service_request_id":"101001124014","status":"closed","status_notes":"Case Closed. Case Resolved. NO VEHICLE AT THIS LOCATION AT THIS TIME.","service_name":"Other","service_code":"4f38920fe75084437f0001a0","description":"Car blocking handicap ramp at Walter  St gate of Arboretum.","requested_datetime":"2014-07-08T14:03:48-04:00","updated_datetime":"2014-07-09T02:54:30-04:00","address":"79\u201399 Bussey St, Boston","lat":42.2966399649552,"long":-71.12903214997716},
{"service_request_id":"101001124354","status":"open","service_name":"Other","service_code":"4f38920fe75084437f0001a0","description":"Would love for you all to, oh you know, enforce Mass law about fireworks in the state and dense neighborhoods. On July 4, I understand a pass, but 2 weeks straight... On a weekday? Y'all need to actually patrol our neighborhoods. I should not have to call you all every night about this.","requested_datetime":"2014-07-09T00:00:35-04:00","updated_datetime":"2014-07-09T00:00:32-04:00","address":"83 Dix St Dorchester, MA 02122","lat":42.295802,"long":-71.057894},
{"service_request_id":"101001124325","status":"open","service_name":"Other","service_code":"4f38920fe75084437f0001a0","description":"Illegal, big fireworks. Again. Quite near fire station.","requested_datetime":"2014-07-08T20:53:49-04:00","updated_datetime":"2014-07-08T20:53:45-04:00","address":"1861 Dorchester Ave, Boston","lat":42.28695424346104,"long":-71.0640375376913},
{"service_request_id":"101001122332","status":"closed","status_notes":"Case Closed. Case Resolved. was done on 7-714.","service_name":"Other","service_code":"4f38920fe75084437f0001a0","description":"Overflowing and smelly trash","requested_datetime":"2014-07-07T06:57:27-04:00","updated_datetime":"2014-07-08T18:24:42-04:00","address":"92\u201398 Westland Ave, Boston","lat":42.34383339066277,"long":-71.09051076701944},
{"service_request_id":"101001124277","status":"open","service_name":"Other","service_code":"4f38920fe75084437f0001a0","description":"Overflowing trash just inside SW Corridor park east of West Newton Street.","requested_datetime":"2014-07-08T18:00:14-04:00","updated_datetime":"2014-07-08T18:00:12-04:00","address":"231 W Newton St, Boston","lat":42.34436538127509,"long":-71.07988963840928},
{"service_request_id":"101001124127","status":"closed","status_notes":"Case Closed. Case Resolved. car left area  intersection is clear.","service_name":"Other","service_code":"4f38920fe75084437f0001a0","description":"Car parked on corner blocking view.","requested_datetime":"2014-07-08T15:15:45-04:00","updated_datetime":"2014-07-08T17:21:20-04:00","address":"29 Varick Rd Boston, MA 02132","lat":42.283928,"long":-71.169055},
{"service_request_id":"101001124085","status":"closed","status_notes":"Case Closed. Case Noted. This issue should be called directly into EMS via 911 as they will have questions regarding specifics on location.","service_name":"Other","service_code":"4f38920fe75084437f0001a0","description":"Needles!!!!  All over the Harrison ave area!   Please do something about this.  This is at the bus stop where older adults and children get on the bus.","requested_datetime":"2014-07-08T14:47:37-04:00","updated_datetime":"2014-07-08T16:22:42-04:00","address":"41 Worcester Sq, Boston","lat":42.33602040916899,"long":-71.0740547441608},
{"service_request_id":"101001122013","status":"closed","status_notes":"Case Closed. Case Resolved. park and glass cleaned.","service_name":"Other","service_code":"4f38920fe75084437f0001a0","description":"Shards of broken glass all through the grass in the common on the hill up behind the frog pond away from beacon street.","requested_datetime":"2014-07-05T15:53:23-04:00","updated_datetime":"2014-07-08T15:58:21-04:00","address":"38 Beacon St, Boston","lat":42.35550917223315,"long":-71.06604038744332},
{"service_request_id":"101001109250","status":"closed","status_notes":"Case Closed. Case Noted. \"City Worker\" is a specially design to use on mobile devices for staff members out in the field .  These devices are fairly new to some of the staff members using them.  We hope that these devices will help resolve cases quicker.  There is additional training that will be scheduled for users.  If you have any questions about a particular case, please contact the Parkline at 617-635-7275,  There is a dedicated staff that can assist you. Thank you.","service_name":"Other","service_code":"4f38920fe75084437f0001a0","description":"Whoever is in charge of those who make citizens connect replies needs to retrain their employees. The grammar and spelling mistakes are completely unacceptable and extremely unprofessional at best and utterly incoherent at worst. See case id 101001108132 for the most grievous example.","requested_datetime":"2014-06-16T09:12:31-04:00","updated_datetime":"2014-07-08T15:26:29-04:00","address":"374 Commonwealth Ave, Boston","lat":42.34881097418828,"long":-71.08873444699327},
{"service_request_id":"101001119036","status":"closed","status_notes":"Case Closed. Case Resolved. CB REPAIRED.","service_name":"Other","service_code":"4f38920fe75084437f0001a0","description":"Beginning of another sinkhole. Hole here is at least 7\" deep and road surface is paper thin.  On the east side of Burr right at Boylston St in JP","requested_datetime":"2014-06-30T23:48:58-04:00","updated_datetime":"2014-07-08T15:11:32-04:00","address":"27 Boylston St, Boston","lat":42.31820832010575,"long":-71.1096522678352},
{"service_request_id":"101001123675","status":"closed","status_notes":"Case Closed. Case Resolved. done.","service_name":"Other","service_code":"4f38920fe75084437f0001a0","description":"Lots of weeds around 491 Commonwealth Ave. block.","requested_datetime":"2014-07-08T10:45:19-04:00","updated_datetime":"2014-07-08T14:57:32-04:00","address":"491 Commonwealth Ave Boston, MA 02215","lat":42.349232,"long":-71.094282},
{"service_request_id":"101001121867","status":"closed","status_notes":"Case Closed. Case Noted. The tree in question was planted by the building owners at 1330 Boylston st. They have a maintenance agreement in place to care for the trees and tree pits at this location. They will be notified to re-plant the tree.","service_name":"Other","service_code":"4f38920fe75084437f0001a0","description":"Newly planted tree at 1330 Boylston about to fall over.","requested_datetime":"2014-07-05T11:39:16-04:00","updated_datetime":"2014-07-08T14:14:51-04:00","address":"1312 Boylston St Boston, MA 02215","lat":42.344361,"long":-71.09817},
{"service_request_id":"101001102256","status":"closed","status_notes":"Case Closed. Case Resolved. Work completed 7/8/14.","service_name":"Other","service_code":"4f38920fe75084437f0001a0","description":"There needs to be a Street cleaning sign put up on this block there is none between blue hill ave and Ashton st","requested_datetime":"2014-06-03T09:36:15-04:00","updated_datetime":"2014-07-08T14:12:19-04:00","address":"241 Woodrow Ave, Boston","lat":42.28585052773569,"long":-71.08997114009325},
{"service_request_id":"101001123153","status":"closed","status_notes":"Case Closed. Case Resolved.","service_name":"Other","service_code":"4f38920fe75084437f0001a0","description":"Large pothole","requested_datetime":"2014-07-07T18:54:23-04:00","updated_datetime":"2014-07-08T14:01:22-04:00","address":"1414-1454 Washington St Boston, MA 02118","lat":42.340688,"long":-71.07083},
{"service_request_id":"101001123159","status":"closed","status_notes":"Case Closed. Case Resolved. area clear.","service_name":"Other","service_code":"4f38920fe75084437f0001a0","description":"Another non resident in resident space. Can you please ticket?","requested_datetime":"2014-07-07T19:05:00-04:00","updated_datetime":"2014-07-08T13:38:30-04:00","address":"1\u201318 Snow Hill St, Boston","lat":42.36619182400626,"long":-71.05659700005414},
{"service_request_id":"101001123403","status":"closed","status_notes":"Case Closed. Case Resolved. vehicle tagged.","service_name":"Other","service_code":"4f38920fe75084437f0001a0","requested_datetime":"2014-07-08T08:34:58-04:00","updated_datetime":"2014-07-08T13:38:14-04:00","address":"307 W 3rd St, Boston","lat":42.3373747294919,"long":-71.04653259739625},
{"service_request_id":"101001123271","status":"closed","status_notes":"Case Closed. Case Resolved. picked up all set.","service_name":"Other","service_code":"4f38920fe75084437f0001a0","description":"Dead bird on street in front of 494 Sumner St. Please remove.","requested_datetime":"2014-07-08T07:01:22-04:00","updated_datetime":"2014-07-08T13:26:12-04:00","address":"496 Sumner St, Boston","lat":42.36512192739643,"long":-71.03086799381397},
{"service_request_id":"101001123763","status":"closed","status_notes":"Case Closed. Case Resolved. area clear   will moniter.","service_name":"Other","service_code":"4f38920fe75084437f0001a0","description":"Illegally parked car please tow.","requested_datetime":"2014-07-08T11:48:37-04:00","updated_datetime":"2014-07-08T13:14:20-04:00","address":"150\u2013172 Kneeland St, Boston","lat":42.34982158992658,"long":-71.05791497050883},
{"service_request_id":"101001122240","status":"closed","status_notes":"Case Closed. Case Resolved. Completed park were cleaned and barrels empited .","service_name":"Other","service_code":"4f38920fe75084437f0001a0","description":"Overflowing park trash bin -- now garbage is piled all around the bin. Probably about 20 pounds of stray trash. This is the bin closest to mass ave and shawmut on the Roxbury side. Thanks!","requested_datetime":"2014-07-06T17:51:45-04:00","updated_datetime":"2014-07-08T11:38:57-04:00","address":"Chester Park, Boston","lat":42.33779044449581,"long":-71.07879437503479},
{"service_request_id":"101001117652","status":"closed","status_notes":"Case Closed. Case Noted. Staff ran out of time but everything was picked up the next morning. EMELY.","service_name":"Other","service_code":"4f38920fe75084437f0001a0","description":"I applaud the effort in trimming, but leaving all the clippings on the ground is indicative of the standard cathedral projects upkeep.  It's almost as nice as the piles of mulch that never get distributed.","requested_datetime":"2014-06-27T19:37:15-04:00","updated_datetime":"2014-07-08T11:35:25-04:00","address":"2\u201330 E Brookline St, Boston","lat":42.33955183070373,"long":-71.0722869169629},
{"service_request_id":"101001118985","status":"closed","status_notes":"Case Closed. Case Resolved. Completed all trash were removed from marcella park and all barrels empited .","service_name":"Other","service_code":"4f38920fe75084437f0001a0","description":"It's July 1 and Peters Park has been mowed once in 2014. Can we get a mowing please?","requested_datetime":"2014-06-30T19:38:24-04:00","updated_datetime":"2014-07-08T11:33:26-04:00","address":"214\u2013226 Shawmut Ave, Boston","lat":42.34389532463892,"long":-71.06753932319977},
{"service_request_id":"101001118963","status":"closed","status_notes":"Case Closed. Case Resolved. Completed grass were cut and park cleaned.","service_name":"Other","service_code":"4f38920fe75084437f0001a0","description":"Peter's park grass needs to be cut.","requested_datetime":"2014-06-30T18:54:18-04:00","updated_datetime":"2014-07-08T11:31:37-04:00","address":"1145\u20131201 Washington St, Boston","lat":42.34354769800009,"long":-71.06675578289367},
{"service_request_id":"101001123164","status":"closed","status_notes":"Case Closed. Case Noted. material,serviced.","service_name":"Other","service_code":"4f38920fe75084437f0001a0","description":"Recycling was not picked up today. Was placed out early this morning.","requested_datetime":"2014-07-07T19:18:33-04:00","updated_datetime":"2014-07-08T11:30:04-04:00","address":"357 Commercial St, Boston","lat":42.36547315962833,"long":-71.05111347518027},
{"service_request_id":"101001118063","status":"closed","status_notes":"Case Closed. Case Resolved. Completed all trash barrels at hayes park were empited .","service_name":"Other","service_code":"4f38920fe75084437f0001a0","description":"Trash needs pick up. At Hayes park.","requested_datetime":"2014-06-29T11:47:17-04:00","updated_datetime":"2014-07-08T11:27:37-04:00","address":"128\u2013164 Warren Ave, Boston","lat":42.34388129462124,"long":-71.07563087731756},
{"service_request_id":"101001123739","status":"open","service_name":"Other","service_code":"4f38920fe75084437f0001a0","description":"After reading incident ending in ...23279 regarding the speed of cars on Faneuil St and Oak Sq, I agree. It is next to impossible to cross the street.  \n\nMr Mayor Walsh, How about instead of raising taxes, tell the police to give out tickets for speeding and failure to stop or yield!","requested_datetime":"2014-07-08T11:26:22-04:00","updated_datetime":"2014-07-08T11:26:22-04:00","address":"392\u2013402 Faneuil St, Boston","lat":42.35138616445064,"long":-71.1670385885765},
{"service_request_id":"101001118265","status":"closed","status_notes":"Case Closed. Case Resolved. Completed all barrels were empited .","service_name":"Other","service_code":"4f38920fe75084437f0001a0","description":"Two trash cans at AK Park are full and need emptying please. Trash will soon spill otherwise. Thank you.","requested_datetime":"2014-06-30T07:43:56-04:00","updated_datetime":"2014-07-08T11:26:13-04:00","address":"51\u201361 Highland St, Boston","lat":42.32806925200143,"long":-71.09252653091316},
{"service_request_id":"101001118238","status":"closed","status_notes":"Case Closed. Case Resolved. Completed.","service_name":"Other","service_code":"4f38920fe75084437f0001a0","description":"Grass/weeds high again. Please mow, thanks.","requested_datetime":"2014-06-30T06:09:49-04:00","updated_datetime":"2014-07-08T11:25:18-04:00","address":"Chester Park, Boston","lat":42.33824002094784,"long":-71.07943785383466},
{"service_request_id":"101001117746","status":"closed","status_notes":"Case Closed. Case Resolved. Completed grass were cut and park cleaned .","service_name":"Other","service_code":"4f38920fe75084437f0001a0","description":"Little league field grass needs cutting ASAP.","requested_datetime":"2014-06-28T09:15:27-04:00","updated_datetime":"2014-07-08T11:24:42-04:00","address":"1143 1149 Washington St, Roxbury","lat":42.34361831102737,"long":-71.0665207543141},
{"service_request_id":"101001117643","status":"closed","status_notes":"Case Closed. Case Resolved. Completed grass were cut and park cleaned .","service_name":"Other","service_code":"4f38920fe75084437f0001a0","description":"Mow peters park","requested_datetime":"2014-06-27T19:13:59-04:00","updated_datetime":"2014-07-08T11:23:11-04:00","address":"230 Shawmut Ave, Roxbury","lat":42.34337138015995,"long":-71.06676651171507},
{"service_request_id":"101001123231","status":"closed","status_notes":"Case Closed. Case Noted. upon,inspection see nothing out for service.","service_name":"Other","service_code":"4f38920fe75084437f0001a0","description":"Trash on sidewalk","requested_datetime":"2014-07-07T22:29:21-04:00","updated_datetime":"2014-07-08T11:12:31-04:00","address":"327 Cambridge St Boston, MA 02114","lat":42.361124,"long":-71.070354},
{"service_request_id":"101001123604","status":"closed","status_notes":"Case Closed. Case Noted. This should be called into EMS directly via 911 as they will have more questions regarding specifics.  I hope this information is helpful.","service_name":"Other","service_code":"4f38920fe75084437f0001a0","description":"There is a bloody jacket and paper towel on the railing at this location. Also blood on ground. All blood is dried. Columbus ave, right above the mass pike, south end side. \nThe user entered the address: Columbus Ave, Boston, Massachusetts to see more details visit: http://seeclickfix.com/issues/1171944","requested_datetime":"2014-07-08T10:10:20-04:00","updated_datetime":"2014-07-08T11:06:31-04:00","address":"Columbus Ave, Boston, Massachusetts","lat":42.3477671090861,"long":-71.0727215185761},
{"service_request_id":"101001123155","status":"closed","status_notes":"Case Closed. Case Noted. material,serviced.","service_name":"Other","service_code":"4f38920fe75084437f0001a0","description":"Recycling collection on Monday missed Revere street between Garden and Irving.","requested_datetime":"2014-07-07T18:58:43-04:00","updated_datetime":"2014-07-08T10:46:54-04:00","address":"9 Revere St Boston, MA 02114","lat":42.359624,"long":-71.066524},
{"service_request_id":"101001123176","status":"closed","status_notes":"Case Closed. Case Noted. Please contact EMS directly via 911 as they will have specific questions regarding exact location.  Issue of an emergency nature should be called in to 911 to ensure immediate response.  Thank you.","service_name":"Other","service_code":"4f38920fe75084437f0001a0","description":"Needle in alley behind teranga","requested_datetime":"2014-07-07T19:44:38-04:00","updated_datetime":"2014-07-08T10:42:30-04:00","address":"654 Massachusetts Ave, Boston","lat":42.33622382582902,"long":-71.0763681494496},
{"service_request_id":"101001119591","status":"closed","status_notes":"Case Closed. Case Noted. Park is under construction, there are two entrances at the Mass. Ave. underpass that do not have an egress.","service_name":"Other","service_code":"4f38920fe75084437f0001a0","description":"Better signage warning that there's no way out of mall and better fencing needed or open grass up","requested_datetime":"2014-07-01T14:16:08-04:00","updated_datetime":"2014-07-08T10:19:08-04:00","address":"Commonwealth Ave, Boston","lat":42.34904509041677,"long":-71.09001900076036},
{"service_request_id":"101001119314","status":"closed","status_notes":"Case Closed. Case Noted. The hours are set, but sometimes the Frog Pond is opened late on hot days.","service_name":"Other","service_code":"4f38920fe75084437f0001a0","description":"Can the frog pond open earlier? 11am seems pretty late for 80-90 degree July days.","requested_datetime":"2014-07-01T10:32:55-04:00","updated_datetime":"2014-07-08T10:17:48-04:00","address":"38 Beacon St, Boston","lat":42.35598258212428,"long":-71.0650883708811},
{"service_request_id":"101001123064","status":"closed","status_notes":"Case Closed. Case Noted. materoal,srrviced.","service_name":"Other","service_code":"4f38920fe75084437f0001a0","description":"Trash never picked up at 338 commercial. Street.","requested_datetime":"2014-07-07T15:58:16-04:00","updated_datetime":"2014-07-08T10:10:06-04:00","address":"2\u2013198 Union Wharf, Boston","lat":42.3654781049512,"long":-71.05094139470816},
{"service_request_id":"101001123310","status":"closed","status_notes":"Case Closed. Case Resolved. emptied.","service_name":"Other","service_code":"4f38920fe75084437f0001a0","description":"Trash compactors on Hanover Street at Parmenter and at Prince Streets area both full.","requested_datetime":"2014-07-08T08:02:32-04:00","updated_datetime":"2014-07-08T09:54:13-04:00","address":"183 Canal St, Boston, MA, 02114","lat":42.364505,"long":-71.059233},
{"service_request_id":"101001123494","status":"closed","status_notes":"Case Closed. Case Resolved. street is posted for street cleaning this morning, 8am to 12pm.","service_name":"Other","service_code":"4f38920fe75084437f0001a0","description":"This block needs a 2nd and 4th sign for street cleaning","requested_datetime":"2014-07-08T09:07:34-04:00","updated_datetime":"2014-07-08T09:52:33-04:00","address":"2\u20138 Greenwood St, Boston","lat":42.30266101126588,"long":-71.07912220336725},
{"service_request_id":"101001122073","status":"closed","status_notes":"Case Closed. Case Noted. Lights will be on at night.","service_name":"Other","service_code":"4f38920fe75084437f0001a0","description":"The soccer field lights are out on the park, last we heard they were to be left on to increase public safety. Can the lights please be turned back on?","requested_datetime":"2014-07-05T21:44:15-04:00","updated_datetime":"2014-07-08T09:41:41-04:00","address":"156-204 Porter St, Boston","lat":42.37133273858797,"long":-71.03268259211539},
{"service_request_id":"101001121763","status":"closed","status_notes":"Case Closed. Case Noted. Lights will be on at night.","service_name":"Other","service_code":"4f38920fe75084437f0001a0","description":"The field lights are not on, they are supposed to be on at night to increase public safety.","requested_datetime":"2014-07-05T00:11:12-04:00","updated_datetime":"2014-07-08T09:41:05-04:00","address":"182\u2013196 Orleans St, Boston","lat":42.37186720247655,"long":-71.03230381762687},
{"service_request_id":"101001123554","status":"open","service_name":"Other","service_code":"4f38920fe75084437f0001a0","description":"Empty lot that's got trash in it and incredibly overgrown weeds, including invasive species.","requested_datetime":"2014-07-08T09:39:09-04:00","updated_datetime":"2014-07-08T09:39:07-04:00","address":"151 Homes Ave, Boston","lat":42.30403078902706,"long":-71.06425563862216},
{"service_request_id":"101001123177","status":"closed","status_notes":"Case Closed. Case Resolved. Debris on sidewalk cleaned up.","service_name":"Other","service_code":"4f38920fe75084437f0001a0","description":"Trash on street and side walk","requested_datetime":"2014-07-07T19:45:56-04:00","updated_datetime":"2014-07-08T09:37:06-04:00","address":"2\u201318 Rockvale Cir, Boston","lat":42.30741946961945,"long":-71.10548771924442},
{"service_request_id":"101001123174","status":"closed","status_notes":"Case Closed. Case Resolved. The Ritz has been notified to remove these expired signs.","service_name":"Other","service_code":"4f38920fe75084437f0001a0","description":"Remove sign, expired","requested_datetime":"2014-07-07T19:38:48-04:00","updated_datetime":"2014-07-08T09:35:23-04:00","address":"82 Essex St, Boston","lat":42.35268166292678,"long":-71.0601858795351},
{"service_request_id":"101001123196","status":"closed","status_notes":"Case Closed. Case Noted. material,serviced.","service_name":"Other","service_code":"4f38920fe75084437f0001a0","description":"It's 8:30. No trash or recycling picked up. What. Is. Going. On? This has happened several times. The new contractor is awful. You need to rethink this decision.","requested_datetime":"2014-07-07T20:29:56-04:00","updated_datetime":"2014-07-08T09:34:45-04:00","address":"31 Oak St, Boston","lat":42.34825646214923,"long":-71.06318165541825},
{"service_request_id":"101001123186","status":"closed","status_notes":"Case Closed. Case Noted. material,serviced.","service_name":"Other","service_code":"4f38920fe75084437f0001a0","description":"City failed to pick up trash AGAIN!","requested_datetime":"2014-07-07T20:10:33-04:00","updated_datetime":"2014-07-08T09:34:09-04:00","address":"34\u201338 Oak St, Boston","lat":42.34828166674144,"long":-71.06314343402889},
{"service_request_id":"101001119926","status":"closed","status_notes":"Case Closed. Case Resolved. Limbs were removed by the BPRD tree crew,.","service_name":"Other","service_code":"4f38920fe75084437f0001a0","description":"Dormant branches inside Ronan park. Corner of mt Ida and bentham st. Should be removed","requested_datetime":"2014-07-02T06:52:10-04:00","updated_datetime":"2014-07-08T09:06:23-04:00","address":"99-107 Mt Ida Rd Boston, MA 02122","lat":42.303296,"long":-71.063069},
{"service_request_id":"101001123188","status":"closed","status_notes":"Case Closed. Case Resolved. Thank you for the call, yes there is a new company whch started on July 1, 2014, we apologize for the inconvenince, trucks are working hard to learn the routes and where all of the stops are.  Times should return to more normal schedule soon.","service_name":"Other","service_code":"4f38920fe75084437f0001a0","description":"Trash wasn't picked up until almost 8pm today.  New company? Is this the new schedule?  Please advise residents.  Thank you.","requested_datetime":"2014-07-07T20:16:43-04:00","updated_datetime":"2014-07-08T08:49:28-04:00","address":"21 Homestead St, Boston","lat":42.31322784197043,"long":-71.09362536105073},
{"service_request_id":"101000833730","status":"closed","status_notes":"Case Closed. Case Resolved.","service_name":"Other","service_code":"4f38920fe75084437f0001a0","description":"No white lines\nArlington & Tremont","requested_datetime":"2013-05-04T15:48:49-04:00","updated_datetime":"2014-07-08T08:41:59-04:00","address":"Arlington St, Boston","lat":42.34750915662273,"long":-71.06865210466822},
{"service_request_id":"101000820132","status":"closed","status_notes":"Case Closed. Case Resolved.","service_name":"Other","service_code":"4f38920fe75084437f0001a0","description":"Lane stripping worn away. Centre Street here is two lanes in each direction.","requested_datetime":"2013-04-10T10:20:40-04:00","updated_datetime":"2014-07-08T08:30:16-04:00","address":"1803 Centre St, Boston","lat":42.28740989700172,"long":-71.15307220264445},
{"service_request_id":"101001123356","status":"open","service_name":"Other","service_code":"4f38920fe75084437f0001a0","description":"Mattress under 1A overpass between Neptune and Swift.","requested_datetime":"2014-07-08T08:22:12-04:00","updated_datetime":"2014-07-08T08:22:11-04:00","address":"400 Bennington St, Boston","lat":42.38050402528185,"long":-71.02414330118914},
{"service_request_id":"101000812415","status":"closed","status_notes":"Case Closed. Case Resolved.","service_name":"Other","service_code":"4f38920fe75084437f0001a0","description":"Need white lines on street","requested_datetime":"2013-03-27T16:17:49-04:00","updated_datetime":"2014-07-08T08:15:52-04:00","address":"Arlington St, Boston","lat":42.34765155710498,"long":-71.06879333972098},
{"service_request_id":"101000805560","status":"closed","status_notes":"Case Closed. Case Resolved.","service_name":"Other","service_code":"4f38920fe75084437f0001a0","description":"the speed hump white street paint is faded, and cars often fly over it, damaging cars. \nThe user entered the address: 16 Paul Gore Street, Jamaica Plain, MA 02130, USA to see more details visit: http://seeclickfix.com/issues/442056","requested_datetime":"2013-03-16T22:31:06-04:00","updated_datetime":"2014-07-08T08:13:19-04:00","address":"16 Paul Gore Street, Jamaica Plain, MA 02130, USA","lat":42.3204062387215,"long":-71.1098649289148},
{"service_request_id":"101000796385","status":"closed","status_notes":"Case Closed. Case Resolved.","service_name":"Other","service_code":"4f38920fe75084437f0001a0","description":"The street needs new lines painted","requested_datetime":"2013-03-05T13:55:04-05:00","updated_datetime":"2014-07-08T08:03:17-04:00","address":"20 Herald St, Boston","lat":42.34642032772364,"long":-71.06378154305276},
{"service_request_id":"101001080905","status":"closed","status_notes":"Case Closed. Case Resolved. Anti skateboard protctors were installed.","service_name":"Other","service_code":"4f38920fe75084437f0001a0","description":"Anti skateboard protectors have been pulled off fountain.","requested_datetime":"2014-05-03T12:26:28-04:00","updated_datetime":"2014-07-08T08:02:20-04:00","address":"543 Boylston St, Boston","lat":42.35054373279433,"long":-71.07580639428559},
{"service_request_id":"101000796154","status":"closed","status_notes":"Case Closed. Case Resolved.","service_name":"Other","service_code":"4f38920fe75084437f0001a0","description":"coming out of lagrange street into washington street  to make a left turn there used to be lanes marking this and a lane for going straight or making a right turn. lines are completely faded","requested_datetime":"2013-03-05T10:15:55-05:00","updated_datetime":"2014-07-08T08:01:59-04:00","address":"5-27 Lagrange St Boston, MA 02132","lat":42.273261,"long":-71.144028},
{"service_request_id":"101001122299","status":"closed","status_notes":"Case Closed. Duplicate of Existing Case. duplicate of case # 1067582.","service_name":"Other","service_code":"4f38920fe75084437f0001a0","description":"Dead street tree in front of Walgreens.  Please replace thanks!","requested_datetime":"2014-07-06T21:57:18-04:00","updated_datetime":"2014-07-08T07:33:42-04:00","address":"1611-1637 Washington St Boston, MA 02118","lat":42.338208,"long":-71.074611},
{"service_request_id":"101001122516","status":"closed","status_notes":"Case Closed. Case Resolved.","service_name":"Other","service_code":"4f38920fe75084437f0001a0","description":"A massive amount of blood is on the street in front of 75 Claredon. It needs to be cleaned up for safety reasons. Thank you.","requested_datetime":"2014-07-07T09:49:55-04:00","updated_datetime":"2014-07-08T07:33:21-04:00","address":"75 Clarendon St, Boston","lat":42.34712106282162,"long":-71.07344577449426},
{"service_request_id":"101001122210","status":"closed","status_notes":"Case Closed. Case Noted. The tree in question is under warranty for two years from the date it was planted. All new trees are inspected every summer during the warranty period to make sure they are alive and healthy. If a tree is found to be dead it will be replaced in following planting season. The watering of the new trees is up to the contractor who planted the tree. The Parks Department also relies on the businesses/homeowners where the trees are planted to help water the trees. Tree pit and sidewalk upkeep including removing trash and weeds is the responsibility of the business/homeowner.","service_name":"Other","service_code":"4f38920fe75084437f0001a0","description":"New trees need water. The gators have litter in them.","requested_datetime":"2014-07-06T15:58:23-04:00","updated_datetime":"2014-07-08T07:31:18-04:00","address":"1426-1454 Boylston St Boston, MA 02215","lat":42.343429,"long":-71.10169},
{"service_request_id":"101001121954","status":"closed","status_notes":"Case Closed. Duplicate of Existing Case. 101001114362.","service_name":"Other","service_code":"4f38920fe75084437f0001a0","description":"Please move this abandoned scooter that blocks access to street and is unsightly for neighbors. Thanks you!","requested_datetime":"2014-07-05T13:54:25-04:00","updated_datetime":"2014-07-08T07:28:07-04:00","address":"39 W Cedar St, Boston","lat":42.35918100367621,"long":-71.06992758401668},
{"service_request_id":"101001120810","status":"closed","status_notes":"Case Closed. Duplicate of Existing Case. 101001114362.","service_name":"Other","service_code":"4f38920fe75084437f0001a0","description":"Please move this abandoned scooter!  It blocks the street and is unsightly!  Owner leaves it there all the time!","requested_datetime":"2014-07-02T18:27:30-04:00","updated_datetime":"2014-07-08T07:25:02-04:00","address":"33\u201349 W Cedar St, Boston","lat":42.35932990978771,"long":-71.07002246203801},
{"service_request_id":"101001121908","status":"closed","status_notes":"Case Closed. Case Noted. The Boston Parks & Recreation Tree Maintenance division is not responsible for weed maintenance or trash removal on public sidewalks. Tree pit maintenance should be done by residents or business owners similar to the snow removal ordinance. The tree maintenance division is only responsible for the tree it self.","service_name":"Other","service_code":"4f38920fe75084437f0001a0","description":"Corner of Bourne and Patten.  Weeds around sidewalk trees need tended to","requested_datetime":"2014-07-05T13:34:07-04:00","updated_datetime":"2014-07-08T07:20:18-04:00","address":"72\u201398 Patten St, Boston","lat":42.29259519376074,"long":-71.1140106060273},
{"service_request_id":"101001123279","status":"open","service_name":"Other","service_code":"4f38920fe75084437f0001a0","description":"In the morning from 7am to about 830am. Trying to cross the street in front of the Library and Firehouse is close to impossible.  Speeding cars come up Faneuil St into Oak Sq as if it was the 5th Lane on the Mass Pike.  Mr Mayor please have your traffic department slow these cars down. Also in front of the YMCA the stop sign is ignored.  Thank you.","requested_datetime":"2014-07-08T07:11:50-04:00","updated_datetime":"2014-07-08T07:11:50-04:00","address":"425 Faneuil St Boston, MA 02135","lat":42.351079,"long":-71.168272},
{"service_request_id":"101001122842","status":"closed","status_notes":"Case Closed. Case Resolved. Not a CEP issue. Refer to the Boston Police or MBTA Police.","service_name":"Other","service_code":"4f38920fe75084437f0001a0","description":"Sliver line bus 1007 exceeding doped limit and did not stop for pedestrian in crosswalk","requested_datetime":"2014-07-07T13:21:40-04:00","updated_datetime":"2014-07-08T07:00:05-04:00","address":"1306 Washington St, Boston","lat":42.34183921016971,"long":-71.06821347965958},
{"service_request_id":"101001123214","status":"open","service_name":"Other","service_code":"4f38920fe75084437f0001a0","description":"Bike lanes were repainted on the side going away from mass ave (both lines).  On the side going toward Mass Ave the team never finished painting the inside white line because cars were parked.    Please paint the inside white bike lane line on a Friday morning during street cleaning when cars aren't parked. Thanks.","requested_datetime":"2014-07-07T21:21:19-04:00","updated_datetime":"2014-07-07T21:21:16-04:00","address":"399 Columbus Ave, Boston","lat":42.34446550174062,"long":-71.07701833554246},
{"service_request_id":"101001123015","status":"closed","status_notes":"Case Closed. Case Resolved. picked up.","service_name":"Other","service_code":"4f38920fe75084437f0001a0","description":"Dead bird in street.","requested_datetime":"2014-07-07T15:23:45-04:00","updated_datetime":"2014-07-07T21:06:03-04:00","address":"34 Goldsmith St, Boston","lat":42.30766078461176,"long":-71.11847673549421},
{"service_request_id":"101001122960","status":"closed","status_notes":"Case Closed. Case Resolved. emptied.","service_name":"Other","service_code":"4f38920fe75084437f0001a0","description":"Overflowing garbage can.","requested_datetime":"2014-07-07T14:51:31-04:00","updated_datetime":"2014-07-07T18:38:45-04:00","address":"2\u201386 Hawkins St, Boston","lat":42.36213917382281,"long":-71.06135406538012},
{"service_request_id":"101001123142","status":"open","service_name":"Other","service_code":"4f38920fe75084437f0001a0","description":"Buses idling on Lincoln st and using street as illegal bus stop","requested_datetime":"2014-07-07T18:23:54-04:00","updated_datetime":"2014-07-07T18:23:48-04:00","address":"109-153 Lincoln St, Boston","lat":42.35152743295054,"long":-71.05861276394786},
{"service_request_id":"101001123140","status":"open","service_name":"Other","service_code":"4f38920fe75084437f0001a0","description":"Buses idling on Lincoln St and illegally using street as bus stop.","requested_datetime":"2014-07-07T18:22:22-04:00","updated_datetime":"2014-07-07T18:22:15-04:00","address":"109-153 Lincoln St, Boston","lat":42.35156452287207,"long":-71.05858527130546},
{"service_request_id":"101001122888","status":"closed","status_notes":"Case Closed. Case Resolved. vehicle has since left the area will monitor.","service_name":"Other","service_code":"4f38920fe75084437f0001a0","description":"illegally parked vehicles  and double parkef semi blocking road","requested_datetime":"2014-07-07T14:04:49-04:00","updated_datetime":"2014-07-07T17:13:48-04:00","address":"1657-1677 Tremont St Boston, MA 02120","lat":42.33369,"long":-71.103361},
{"service_request_id":"101001122724","status":"closed","status_notes":"Case Closed. Case Resolved. officer could not remove cover to get to plate.","service_name":"Other","service_code":"4f38920fe75084437f0001a0","requested_datetime":"2014-07-07T11:53:55-04:00","updated_datetime":"2014-07-07T17:12:35-04:00","address":"40\u201358 W Cedar St, Boston","lat":42.35897286799025,"long":-71.07001927687885},
{"service_request_id":"101001122819","status":"closed","status_notes":"Case Closed. Case Resolved. vehicle has since moved.","service_name":"Other","service_code":"4f38920fe75084437f0001a0","description":"Parked on pedestrian lane","requested_datetime":"2014-07-07T13:03:58-04:00","updated_datetime":"2014-07-07T17:09:22-04:00","address":"505 Talbot Ave, Boston","lat":42.28816020306413,"long":-71.06579706079425},
{"service_request_id":"101001122999","status":"closed","status_notes":"Case Closed. Case Noted. Rubbish collection running late citywide.  If rubbish not collected by 7PM please resubmit.  Thank you.","service_name":"Other","service_code":"4f38920fe75084437f0001a0","description":"Ok. So I know the city is using a new contractor for trash pick up. But they're not doing a good job. Our trash used to be collected at 7am. Now it gets picked up whenever or sometimes never at all. I just came home to take care of a sick pet. I had to get another trash bag out, because of all the trash people heaped near my trash, in unapproved city bags. I know there is a learning curve.... But.... Really?","requested_datetime":"2014-07-07T15:13:28-04:00","updated_datetime":"2014-07-07T17:07:15-04:00","address":"31 Oak St, Boston","lat":42.34822719253681,"long":-71.06300488118268},
{"service_request_id":"101001122978","status":"closed","status_notes":"Case Closed. Case Noted. Collections running late on Mon 7/7 citywide.  If not collected by 7PM, please resubmit.","service_name":"Other","service_code":"4f38920fe75084437f0001a0","description":"This trash was not picked up","requested_datetime":"2014-07-07T15:03:09-04:00","updated_datetime":"2014-07-07T16:56:22-04:00","address":"2\u201330 Garden St, Boston","lat":42.360502448745,"long":-71.06691495519958},
{"service_request_id":"101001121725","status":"closed","status_notes":"Case Closed. Case Resolved. SMALL FLOOD DUE TO LAY OF LAND NO CB AT LOCATION 7/7.","service_name":"Other","service_code":"4f38920fe75084437f0001a0","description":"Rain water does not drain","requested_datetime":"2014-07-04T17:50:03-04:00","updated_datetime":"2014-07-07T16:04:35-04:00","address":"18 Brainerd Rd, Allston, MA, 02134","lat":42.34873,"long":-71.130743},
{"service_request_id":"101001120194","status":"closed","status_notes":"Case Closed. Case Resolved.","service_name":"Other","service_code":"4f38920fe75084437f0001a0","description":"Red light out on right side on Surface Rd at crosswalk between Summer and Lincoln Streets.","requested_datetime":"2014-07-02T09:42:31-04:00","updated_datetime":"2014-07-07T15:21:08-04:00","address":"John F Fitzgerald Surface Rd Boston, MA 02111","lat":42.352622,"long":-71.057099},
{"service_request_id":"101001122716","status":"closed","status_notes":"Case Closed. Case Noted. Thank you for your call, Clifton Street is considered North Dorchester in our break down of city districts.  There are some parts of the city that get collected twice a week due to lack of storage space.  Sorry for any confusion or inconvenience this may have caused.","service_name":"Other","service_code":"4f38920fe75084437f0001a0","description":"On the city website and the flyer we received announces that trash will be picked up in Roxbury two days a week Monday and Thursday starting July 1st. It never happened it says Roxbury but when I call the city they say not for our street why's that ? what part of Roxbury gets two days a week?","requested_datetime":"2014-07-07T11:43:27-04:00","updated_datetime":"2014-07-07T15:11:07-04:00","address":"27 Clifton St Roxbury, MA 02119","lat":42.322527,"long":-71.070727},
{"service_request_id":"101001122242","status":"closed","status_notes":"Case Closed. Case Resolved.","service_name":"Other","service_code":"4f38920fe75084437f0001a0","description":"Parking cones  left in street on Sunday obstructing the street. Discouraging allowed parking in front of 272 Marlborough st.","requested_datetime":"2014-07-06T18:01:01-04:00","updated_datetime":"2014-07-07T14:21:15-04:00","address":"258 Marlborough St, Boston","lat":42.35182619329557,"long":-71.08250487603893},
{"service_request_id":"101001122138","status":"closed","status_notes":"Case Closed. Case Resolved.","service_name":"Other","service_code":"4f38920fe75084437f0001a0","description":"Empty wheelchair on street.","requested_datetime":"2014-07-06T09:33:37-04:00","updated_datetime":"2014-07-07T14:21:03-04:00","address":"19 Custom House St, Boston","lat":42.35815929131748,"long":-71.05289663419272},
{"service_request_id":"101001122202","status":"closed","status_notes":"Case Closed. Case Resolved.","service_name":"Other","service_code":"4f38920fe75084437f0001a0","description":"Multiple tv sets. Been out for days. In front of southcoveat church and stuart sts.","requested_datetime":"2014-07-06T15:36:15-04:00","updated_datetime":"2014-07-07T14:18:24-04:00","address":"1-17 Cocoanut Grove Ln Boston, MA 02116","lat":42.350197,"long":-71.067976},
{"service_request_id":"101001122140","status":"closed","status_notes":"Case Closed. Case Resolved. vehicle is moving.","service_name":"Other","service_code":"4f38920fe75084437f0001a0","description":"Second report,  different car.  This is a no parking one way street.","requested_datetime":"2014-07-06T09:43:50-04:00","updated_datetime":"2014-07-07T13:58:54-04:00","address":"14 Springer St Boston, MA 02127","lat":42.331947,"long":-71.04082},
{"service_request_id":"101001122151","status":"closed","status_notes":"Case Closed. Case Resolved. bus stop is clear.","service_name":"Other","service_code":"4f38920fe75084437f0001a0","description":"Car parked in bus stop","requested_datetime":"2014-07-06T11:35:33-04:00","updated_datetime":"2014-07-07T13:49:16-04:00","address":"906 E 4th St, Boston","lat":42.33494538817772,"long":-71.02744742303251},
{"service_request_id":"101001122613","status":"closed","status_notes":"Case Closed. Case Resolved. cab stand is clear of double parked vehicles.","service_name":"Other","service_code":"4f38920fe75084437f0001a0","description":"Can stand overloaded,  cabs blocking traffic and parking,  double parked...daily problem","requested_datetime":"2014-07-07T10:46:05-04:00","updated_datetime":"2014-07-07T13:48:55-04:00","address":"709 E Broadway, Boston","lat":42.33553107366183,"long":-71.03697270161568},
{"service_request_id":"101001122328","status":"closed","status_notes":"Case Closed. Case Resolved. Ticket was issued on 7-7-14 by Officer O'Keefe.","service_name":"Other","service_code":"4f38920fe75084437f0001a0","description":"Improper trash disposal in front of our house at 104 Revere St. This is the second pickup day in a row where neighbors have put trash in front of our house. This is not in bags and unacceptable. Thus photo is before we placed ours out for pickup at 6:30 -am.","requested_datetime":"2014-07-07T06:32:02-04:00","updated_datetime":"2014-07-07T13:34:24-04:00","address":"96\u2013106 Revere St, Boston","lat":42.35946693847966,"long":-71.07023808196816},
{"service_request_id":"101001122130","status":"closed","status_notes":"Case Closed. Case Resolved. Officer Skillin found no violation on 7-7-14.","service_name":"Other","service_code":"4f38920fe75084437f0001a0","description":"Have a hard time getting this one. These people have to walk at least a block to dump their personal trash in a public receptacle.","requested_datetime":"2014-07-06T08:37:47-04:00","updated_datetime":"2014-07-07T13:33:55-04:00","address":"21 Chandler St, Boston","lat":42.34737034392052,"long":-71.06976605967425},
{"service_request_id":"101001121906","status":"closed","status_notes":"Case Closed. Case Resolved. Officer Cherry found no violation on 7-7-14.","service_name":"Other","service_code":"4f38920fe75084437f0001a0","description":"Leaving trash on sidewalk. Today is Saturday 7/5, trash days are Monday and Thursday.","requested_datetime":"2014-07-05T13:20:35-04:00","updated_datetime":"2014-07-07T13:33:19-04:00","address":"14 Circuit St, Boston","lat":42.3236585596656,"long":-71.08510505210988},
{"service_request_id":"101001122185","status":"closed","status_notes":"Case Closed. Case Resolved. Officer Skillin found no violation on 7-7-14.","service_name":"Other","service_code":"4f38920fe75084437f0001a0","description":"Multiple trash bags left on ground and not in designated trash barrels. This happens on an almost daily basis and I have submitted numerous pictures & complaints and all get dismissed. What stronger action can I take vs South End Coop, the property managers? My yard is infested w/rats because if this and I am sick of it. Thanks.","requested_datetime":"2014-07-06T14:21:36-04:00","updated_datetime":"2014-07-07T13:18:43-04:00","address":"6 Concord Sq, Boston","lat":42.34079072505077,"long":-71.07864500961581},
{"service_request_id":"101001122135","status":"closed","status_notes":"Case Closed. Case Resolved. Officer Skillin found no violation on 7-7-14.","service_name":"Other","service_code":"4f38920fe75084437f0001a0","description":"As usual, trash out early.","requested_datetime":"2014-07-06T09:25:45-04:00","updated_datetime":"2014-07-07T13:17:59-04:00","address":"1750 Washington St, Boston","lat":42.33662453484008,"long":-71.0767903458989},
{"service_request_id":"101001122284","status":"closed","status_notes":"Case Closed. Case Resolved. Officer Skillin found no violation on 7-7-14.","service_name":"Other","service_code":"4f38920fe75084437f0001a0","description":"139 Pembroke leaves trash everywhere- not in barrels.","requested_datetime":"2014-07-06T20:25:14-04:00","updated_datetime":"2014-07-07T13:17:19-04:00","address":"139 Pembroke St, Boston","lat":42.34331108661407,"long":-71.07732935825344},
{"service_request_id":"101001122323","status":"closed","status_notes":"Case Closed. Case Resolved. Ticket was issued on 7-7-14 by Officer Skillin.","service_name":"Other","service_code":"4f38920fe75084437f0001a0","description":"Trash out early","requested_datetime":"2014-07-07T06:12:32-04:00","updated_datetime":"2014-07-07T13:15:24-04:00","address":"85 E Brookline St, Boston","lat":42.33763038224328,"long":-71.07040467678311},
{"service_request_id":"101001122182","status":"closed","status_notes":"Case Closed. Case Resolved. Officer Sheehan found no violation on 7-7-14.","service_name":"Other","service_code":"4f38920fe75084437f0001a0","description":"Litter all over sidewalk against fence","requested_datetime":"2014-07-06T14:12:34-04:00","updated_datetime":"2014-07-07T13:14:22-04:00","address":"116-120 Talbot Ave Boston, MA 02124","lat":42.293254,"long":-71.082152},
{"service_request_id":"101001122496","status":"closed","status_notes":"Case Closed. Case Resolved. Ticket was issued on 7-7-14 by Officer Sheehan.","service_name":"Other","service_code":"4f38920fe75084437f0001a0","description":"Loose trash and overgrowth","requested_datetime":"2014-07-07T09:40:59-04:00","updated_datetime":"2014-07-07T13:13:50-04:00","address":"14 Cawfield St, 2, Dorchester, MA, 02125","lat":42.320205,"long":-71.06374},
{"service_request_id":"101001122346","status":"closed","status_notes":"Case Closed. Case Resolved. roadway item removed.","service_name":"Other","service_code":"4f38920fe75084437f0001a0","description":"Large item in road","requested_datetime":"2014-07-07T08:00:39-04:00","updated_datetime":"2014-07-07T13:13:21-04:00","address":"120 Cambridge St, Allston","lat":42.35928366976317,"long":-71.12120614434713},
{"service_request_id":"101001122174","status":"closed","status_notes":"Case Closed. Case Resolved. Officer Sheehan found no violation on 7-7-14.","service_name":"Other","service_code":"4f38920fe75084437f0001a0","description":"Multiple uncovered dumpsters for the multifamily bldg at the corner of Nonquit and Dudley. They pull them out every Sunday early for a Monday pickup and same early Wednesdays for Thursday pickup. They restrict access and parking on the street.","requested_datetime":"2014-07-06T13:40:01-04:00","updated_datetime":"2014-07-07T13:12:51-04:00","address":"713 Dudley St Dorchester, MA 02125","lat":42.318075,"long":-71.067931},
{"service_request_id":"101001122327","status":"closed","status_notes":"Case Closed. Case Resolved. Ticket was issued on 7-7-14 by Officer O'Keefe.","service_name":"Other","service_code":"4f38920fe75084437f0001a0","description":"Trash left at wrong biilding.","requested_datetime":"2014-07-07T06:30:37-04:00","updated_datetime":"2014-07-07T13:11:28-04:00","address":"13\u201399 Spruce St, Boston","lat":42.35664772076123,"long":-71.0676462127853},
{"service_request_id":"101001122263","status":"closed","status_notes":"Case Closed. Case Resolved. Officer O'Keefe found no violation on 7-7-14.","service_name":"Other","service_code":"4f38920fe75084437f0001a0","description":"Neighbor has not kept up with his property...we have had a rate infestation due to the trash they leave around the house.  The picture does not do it justice.  Please assist in making our neighborhood a safe and habitable environment.","requested_datetime":"2014-07-06T19:20:27-04:00","updated_datetime":"2014-07-07T13:09:48-04:00","address":"422 Centre St, Boston","lat":42.32052712180646,"long":-71.11078058634084},
{"service_request_id":"101001122561","status":"closed","status_notes":"Case Closed. Case Resolved. Officer O'Keefe found no violation on 7-7-14.","service_name":"Other","service_code":"4f38920fe75084437f0001a0","description":"Overgrown hedge makes sidewalk impassable.","requested_datetime":"2014-07-07T10:10:41-04:00","updated_datetime":"2014-07-07T13:08:55-04:00","address":"831 Centre St, Boston","lat":42.30892925992823,"long":-71.1181236059136},
{"service_request_id":"101001122026","status":"closed","status_notes":"Case Closed. Case Resolved. Ticket was issued on 7-7-14 by Officer O'Keefe.","service_name":"Other","service_code":"4f38920fe75084437f0001a0","description":"Residential Trash","requested_datetime":"2014-07-05T16:59:14-04:00","updated_datetime":"2014-07-07T13:07:22-04:00","address":"106 Charles St, Boston","lat":42.35881520017556,"long":-71.0707739834828},
{"service_request_id":"101001122623","status":"closed","status_notes":"Case Closed. Case Resolved. emptied.","service_name":"Other","service_code":"4f38920fe75084437f0001a0","description":"Trash Barrel Overflow!","requested_datetime":"2014-07-07T10:58:29-04:00","updated_datetime":"2014-07-07T13:07:16-04:00","address":"106 Charles St, Boston","lat":42.35886032257772,"long":-71.0707920883731},
{"service_request_id":"101001122293","status":"closed","status_notes":"Case Closed. Case Resolved. Ticket was issued on 7-7-14 by Officer Welch.","service_name":"Other","service_code":"4f38920fe75084437f0001a0","description":"Trash put out on Sunday for Wednesday pickup.","requested_datetime":"2014-07-06T21:14:09-04:00","updated_datetime":"2014-07-07T13:02:41-04:00","address":"487 E 7th St, Boston","lat":42.33206653971442,"long":-71.0410046484983},
{"service_request_id":"101001122081","status":"closed","status_notes":"Case Closed. Case Resolved. Officer Mancini issued a ticket on 7-7-14.","service_name":"Other","service_code":"4f38920fe75084437f0001a0","description":"Trash between 9 and 15 parkvale ave","requested_datetime":"2014-07-05T22:03:18-04:00","updated_datetime":"2014-07-07T13:01:11-04:00","address":"15 Parkvale Ave, Boston","lat":42.35130566566662,"long":-71.13293174660616},
{"service_request_id":"101001122145","status":"closed","status_notes":"Case Closed. Case Resolved. Ticket was issued on 7-7-14 by Officer Mancini.","service_name":"Other","service_code":"4f38920fe75084437f0001a0","description":"This trash is still out of control. This time it's much worse as the rats and seagulls have gotten into it. It's great you wrote them a ticket. But that's just a slap on the wrist. This landlord is a repeat offender.","requested_datetime":"2014-07-06T10:23:13-04:00","updated_datetime":"2014-07-07T13:00:32-04:00","address":"215 Harvard Ave, Boston","lat":42.34936129771392,"long":-71.13081539987691},
{"service_request_id":"101001122243","status":"closed","status_notes":"Case Closed. Case Resolved. Officer Mancini found no violation on 7-7-14.","service_name":"Other","service_code":"4f38920fe75084437f0001a0","description":"Trash/construction debris sitting outside this house for days.","requested_datetime":"2014-07-06T18:04:25-04:00","updated_datetime":"2014-07-07T12:59:41-04:00","address":"1\u201335 Margo Rd, Boston","lat":42.34784714560956,"long":-71.1692213639577},
{"service_request_id":"101001122199","status":"closed","status_notes":"Case Closed. Case Resolved. Officer Mancini found no violation on 7-7-14.","service_name":"Other","service_code":"4f38920fe75084437f0001a0","description":"Trash illegally left outside as of 3.30pm Sun. 7/6/14...","requested_datetime":"2014-07-06T15:30:45-04:00","updated_datetime":"2014-07-07T12:59:30-04:00","address":"114 Salem St, Boston","lat":42.36461774450016,"long":-71.0555437301016},
{"service_request_id":"101001122216","status":"closed","status_notes":"Case Closed. Case Resolved. Ticket was issued on 7-7-14 by Officer Mancini.","service_name":"Other","service_code":"4f38920fe75084437f0001a0","description":"Garbage has been on the street since Thursday.","requested_datetime":"2014-07-06T16:42:19-04:00","updated_datetime":"2014-07-07T12:58:51-04:00","address":"15 Parkvale Ave, Boston","lat":42.35127647876958,"long":-71.13292780711421},
{"service_request_id":"101001122401","status":"closed","status_notes":"Case Closed. Case Resolved. Ticket was issued on 7-7-14 by Officer Mancini.","service_name":"Other","service_code":"4f38920fe75084437f0001a0","description":"And another!","requested_datetime":"2014-07-07T08:36:33-04:00","updated_datetime":"2014-07-07T12:58:00-04:00","address":"743-791 Beacon St Boston, MA 02215","lat":42.347963,"long":-71.099892},
{"service_request_id":"101001122396","status":"closed","status_notes":"Case Closed. Case Resolved. Ticket was issued on 7-7-14 by Officer Mancini.","service_name":"Other","service_code":"4f38920fe75084437f0001a0","description":"Ummm...no no no.  Another public space just like on Southampton St. I sent yesterday.  When will these signs stop?  Been well over six months. Over Pike.","requested_datetime":"2014-07-07T08:34:56-04:00","updated_datetime":"2014-07-07T12:57:38-04:00","address":"743-791 Beacon St Boston, MA 02215","lat":42.347682,"long":-71.101127},
{"service_request_id":"101001122158","status":"closed","status_notes":"Case Closed. Case Resolved. Ticket was issued on 7-7-14 by Officer Mancini.","service_name":"Other","service_code":"4f38920fe75084437f0001a0","description":"Recycling plaved on sidewalk Sunday morning. See envelope inside, Karin Oberg 84 Prince St #4B","requested_datetime":"2014-07-06T12:09:00-04:00","updated_datetime":"2014-07-07T12:57:04-04:00","address":"84 Prince St Boston, MA 02113","lat":42.365353,"long":-71.055719},
{"service_request_id":"101001122061","status":"closed","status_notes":"Case Closed. Case Resolved. Ticket was issued on 7-7-14 by Officer Skillin.","service_name":"Other","service_code":"4f38920fe75084437f0001a0","description":"Trash dumped at street corner again","requested_datetime":"2014-07-05T20:24:47-04:00","updated_datetime":"2014-07-07T12:55:19-04:00","address":"42 Beach St Boston, MA 02111","lat":42.351478,"long":-71.061268},
{"service_request_id":"101001121792","status":"closed","status_notes":"Case Closed. Case Resolved. Officer Skillin found no violation on 7-7-14.","service_name":"Other","service_code":"4f38920fe75084437f0001a0","description":"Trash bag left on corner.  Either by a resident or trash collection.   Will encourage rats.  More than I can pick up while walking.  Please collect.","requested_datetime":"2014-07-05T07:48:04-04:00","updated_datetime":"2014-07-07T12:54:30-04:00","address":"171 W Newton St, Boston","lat":42.3428268079109,"long":-71.07794285758499},
{"service_request_id":"101001121890","status":"closed","status_notes":"Case Closed. Case Resolved. Ticket was issued on 7-7-14 by Officer Dao.","service_name":"Other","service_code":"4f38920fe75084437f0001a0","requested_datetime":"2014-07-05T12:37:30-04:00","updated_datetime":"2014-07-07T12:53:58-04:00","address":"1445 Tremont St, 2, Mission Hill","lat":42.331916,"long":-71.096794},
{"service_request_id":"101001122712","status":"closed","status_notes":"Case Closed. Case Resolved. Ticket was issued on 7-7-14 by Officer Welch.","service_name":"Other","service_code":"4f38920fe75084437f0001a0","description":"back yard is like a forrest. causing all types of rodents and skunks and racoons to take over neighbors trash and yards. house has been abandoned for years. back yard is horrible \nThe user entered the address: 285 Princeton Street, Boston, MA 02128, USA to see more details visit: http://seeclickfix.com/issues/1169713","requested_datetime":"2014-07-07T11:40:59-04:00","updated_datetime":"2014-07-07T12:52:02-04:00","address":"285 Princeton Street, Boston, MA 02128, USA","lat":42.379919,"long":-71.028688},
{"service_request_id":"101001120467","status":"closed","status_notes":"Case Closed. Case Resolved. we clean this park 3-4 times a week some times every day . I don,t no what we can do to stop kids from doing illegal stuff.  ( any ideals )?","service_name":"Other","service_code":"4f38920fe75084437f0001a0","description":"The park is being treated like a trash can. There's been a lot of day time drinking by the kids play area (and the bottles to prove it), groups of grown men hanging out in the woods, illegal parking, and other activity that makes the park extremely uncomfortable to use by the general public. What can be done? How can I help? I've found needles and used condoms so I am hesitant to pick up trash, but I love this park and want it to be used by all safely and legally. It's a beautiful place.","requested_datetime":"2014-07-02T12:33:01-04:00","updated_datetime":"2014-07-07T12:51:34-04:00","address":"243 Parker Hill Ave, Boston","lat":42.32846174450174,"long":-71.10333428287059},
{"service_request_id":"101001121815","status":"closed","status_notes":"Case Closed. Case Resolved. Officer Welch found no violation on 7-7-14.","service_name":"Other","service_code":"4f38920fe75084437f0001a0","description":"These cute stickers are everywhere.","requested_datetime":"2014-07-05T09:10:51-04:00","updated_datetime":"2014-07-07T12:51:30-04:00","address":"Intersection of Atlantic Ave and Commercial Wharf E, Boston, MA","lat":42.362157,"long":-71.051173},
{"service_request_id":"101001122008","status":"closed","status_notes":"Case Closed. Case Resolved. Officer Mancini found no violation on 7-7-14.","service_name":"Other","service_code":"4f38920fe75084437f0001a0","description":"It's 59 Strathmore. It has been in this condition for several years, so clearly there are no plans to improve it. I've called ISD in the past, and tried it again last month and even received a nice email from Chief Mackan saying they would look into it.  Still, nothing has been done. Surely, we can do better than this. \n\nThank you.","requested_datetime":"2014-07-05T15:31:28-04:00","updated_datetime":"2014-07-07T12:50:19-04:00","address":"59-A Strathmore Rd, Boston","lat":42.33831097883101,"long":-71.14805948942266},
{"service_request_id":"101001121807","status":"closed","status_notes":"Case Closed. Case Resolved. Officer Mancini found no violation on 7-7-14.","service_name":"Other","service_code":"4f38920fe75084437f0001a0","description":"Lots if stickers and tags all sides.  Cross St. North End.","requested_datetime":"2014-07-05T08:57:13-04:00","updated_datetime":"2014-07-07T12:49:12-04:00","address":"6 Stillman Pl, Boston, MA, 02113","lat":42.364213,"long":-71.057917},
{"service_request_id":"101001121805","status":"closed","status_notes":"Case Closed. Case Resolved. Officer Mancini found no violation on 7-7-14.","service_name":"Other","service_code":"4f38920fe75084437f0001a0","description":"MassDot?  This sticker will not cone off...already removed two myself.","requested_datetime":"2014-07-05T08:55:34-04:00","updated_datetime":"2014-07-07T12:48:57-04:00","address":"59 Cooper St, Boston, MA, 02113","lat":42.364368,"long":-71.058015},
{"service_request_id":"101001121640","status":"closed","status_notes":"Case Closed. Case Resolved. Ticket was issued on 7-7-14 by Officer Dao.","service_name":"Other","service_code":"4f38920fe75084437f0001a0","description":"Trash","requested_datetime":"2014-07-04T10:45:17-04:00","updated_datetime":"2014-07-07T12:48:03-04:00","address":"347 Tremont St Boston, MA 02116","lat":42.348464,"long":-71.067383},
{"service_request_id":"101001120429","status":"closed","status_notes":"Case Closed. Case Resolved. Applicant called to remove signs.","service_name":"Other","service_code":"4f38920fe75084437f0001a0","description":"Outdated...maybe others in area?","requested_datetime":"2014-07-02T12:19:15-04:00","updated_datetime":"2014-07-07T12:42:18-04:00","address":"250-270 Franklin St Boston, MA 02110","lat":42.356547,"long":-71.054147},
{"service_request_id":"101001121816","status":"closed","status_notes":"Case Closed. Case Resolved. We have contacted Permit Puller/applicant to remove signs.","service_name":"Other","service_code":"4f38920fe75084437f0001a0","description":"Outdated","requested_datetime":"2014-07-05T09:11:35-04:00","updated_datetime":"2014-07-07T12:36:48-04:00","address":"Intersection of Atlantic Ave and Commercial Wharf E, Boston, MA","lat":42.362157,"long":-71.051173},
{"service_request_id":"101001120858","status":"closed","status_notes":"Case Closed. Case Resolved. park was finished on july 3.","service_name":"Other","service_code":"4f38920fe75084437f0001a0","description":"Lawn mowers missed half of cobb's hill terrace","requested_datetime":"2014-07-02T20:40:17-04:00","updated_datetime":"2014-07-07T12:21:29-04:00","address":"2 Jackson Ave, Boston","lat":42.36788484271836,"long":-71.05523670098842},
{"service_request_id":"101001119903","status":"closed","status_notes":"Case Closed. Case Resolved. park cleaned.","service_name":"Other","service_code":"4f38920fe75084437f0001a0","description":"The park across from city hall is a total mess","requested_datetime":"2014-07-01T23:26:50-04:00","updated_datetime":"2014-07-07T12:19:38-04:00","address":"Congress St, Boston","lat":42.36072657168131,"long":-71.05734994641604},
{"service_request_id":"101001122405","status":"closed","status_notes":"Case Closed. Case Resolved. emptied.","service_name":"Other","service_code":"4f38920fe75084437f0001a0","description":"Trash receptacle over flowing","requested_datetime":"2014-07-07T08:39:40-04:00","updated_datetime":"2014-07-07T12:15:28-04:00","address":"Intersection of W Canton St and Tremont St, Roxbury, MA","lat":42.342434,"long":-71.074531},
{"service_request_id":"101001121905","status":"closed","status_notes":"Case Closed. Case Resolved. all litter baskets changed all set.","service_name":"Other","service_code":"4f38920fe75084437f0001a0","description":"Trash overflowing. Multiple locations on Brooks Street. Some obviously household trash. Barrels should have been emptied today.","requested_datetime":"2014-07-05T13:20:25-04:00","updated_datetime":"2014-07-07T11:51:07-04:00","address":"112\u2013140 Brooks St, Boston","lat":42.37853144993895,"long":-71.03494317849453},
{"service_request_id":"101001122209","status":"closed","status_notes":"Case Closed. Case Referred to External Agency. State DCR jurisdiction.  Details forwarded.","service_name":"Other","service_code":"4f38920fe75084437f0001a0","description":"Stone wall damaged","requested_datetime":"2014-07-06T15:52:28-04:00","updated_datetime":"2014-07-07T11:33:23-04:00","address":"22-42 Edgewater Dr Boston, MA 02126","lat":42.265435,"long":-71.09611},
{"service_request_id":"101001122192","status":"closed","status_notes":"Case Closed. Case Noted.","service_name":"Other","service_code":"4f38920fe75084437f0001a0","description":"This cone is always here. Something more needs to be done with people who save spaces year round. Owners live at 21 Norfolk. Perhaps their landlord should be contacted.","requested_datetime":"2014-07-06T14:56:35-04:00","updated_datetime":"2014-07-07T11:27:09-04:00","address":"17 Norfolk St, Boston","lat":42.32861105822244,"long":-71.09103715053861},
{"service_request_id":"101001122303","status":"closed","status_notes":"Case Closed. Case Referred to External Agency. MBTA jurisdiction.  Details forwarded.","service_name":"Other","service_code":"4f38920fe75084437f0001a0","description":"The original Flag that the Police Captain place Hot torneo frontal the rope someone stole the flag someone else with good intention place a flag half way fortunaly the flag have not Been\n order at a halfmast so it should be removed it looks stupid","requested_datetime":"2014-07-06T22:36:27-04:00","updated_datetime":"2014-07-07T11:26:08-04:00","address":"69-71 Maverick Square Boston, MA 02128","lat":42.369751,"long":-71.03872},
{"service_request_id":"101001121882","status":"closed","status_notes":"Case Closed. Case Resolved. Crew shut off at sidewalk stopped leak  7/5.","service_name":"Other","service_code":"4f38920fe75084437f0001a0","description":"Water bubbling up through the sidewalk and Mayor's hotline is not answering calls \n\n97 Newbury","requested_datetime":"2014-07-05T12:12:04-04:00","updated_datetime":"2014-07-07T11:24:23-04:00","address":"93-95 Newbury St, Boston","lat":42.3517498467512,"long":-71.07513391419414},
{"service_request_id":"101001121866","status":"closed","status_notes":"Case Closed. Case Resolved. Crew shut off at sidewalk stopped leak  7/5.","service_name":"Other","service_code":"4f38920fe75084437f0001a0","description":"Water is bubbling up from under sidewalk - has already created quite a pool.  Looks like a significant leak at 97 Newbury St - John Lewis, Inc.","requested_datetime":"2014-07-05T11:33:12-04:00","updated_datetime":"2014-07-07T11:23:44-04:00","address":"97 Newbury St, Boston","lat":42.35159459496776,"long":-71.07516250039185},
{"service_request_id":"101001121839","status":"closed","status_notes":"Case Closed. Case Invalid. Unable to determine service reqeusted.  If issue persists please resubmit w/ more specific info.","service_name":"Other","service_code":"4f38920fe75084437f0001a0","requested_datetime":"2014-07-05T10:07:01-04:00","updated_datetime":"2014-07-07T11:21:45-04:00","address":"245 E St, Boston","lat":42.3355740728251,"long":-71.0518873763001},
{"service_request_id":"101001121873","status":"closed","status_notes":"Case Closed. Duplicate of Existing Case. Same as  #1121874.","service_name":"Other","service_code":"4f38920fe75084437f0001a0","description":"Dead tree","requested_datetime":"2014-07-05T11:53:52-04:00","updated_datetime":"2014-07-07T10:52:49-04:00","address":"Surface Rd, Boston","lat":42.36040973574143,"long":-71.05309328070939},
{"service_request_id":"101001121856","status":"closed","status_notes":"Case Closed. Case Resolved. Large limb removed by Northern Tree from a COB park tree.","service_name":"Other","service_code":"4f38920fe75084437f0001a0","description":"Tree Branch blocking sidewalk","requested_datetime":"2014-07-05T11:09:30-04:00","updated_datetime":"2014-07-07T10:43:42-04:00","address":"45 Lewis St, Boston","lat":42.36335311941544,"long":-71.0505472776682},
{"service_request_id":"101001122110","status":"closed","status_notes":"Case Closed. Case Resolved. Large limb was removed by Northern tree from a COB tree.","service_name":"Other","service_code":"4f38920fe75084437f0001a0","description":"Tree destroyed by storm and branches in the street.","requested_datetime":"2014-07-06T02:25:08-04:00","updated_datetime":"2014-07-07T10:43:00-04:00","address":"17\u201363 Montgomery St, Boston","lat":42.34386469707111,"long":-71.07342693961326},
{"service_request_id":"101001122254","status":"closed","status_notes":"Case Closed. Case Noted. Nothing found by MFD of the BPRD.","service_name":"Other","service_code":"4f38920fe75084437f0001a0","description":"Trees/branches not cleaned up since Thursday night.   Blocking fire hydrant.","requested_datetime":"2014-07-06T18:35:32-04:00","updated_datetime":"2014-07-07T10:40:53-04:00","address":"5-7 N Crescent Circuit, Boston","lat":42.3492752606013,"long":-71.16817035718437},
{"service_request_id":"101001121886","status":"closed","status_notes":"Case Closed. Case Noted. Nothing found by MFD of the BPRD.","service_name":"Other","service_code":"4f38920fe75084437f0001a0","description":"Downed tree limb blocking a lane.","requested_datetime":"2014-07-05T12:29:10-04:00","updated_datetime":"2014-07-07T10:40:18-04:00","address":"233 Cambridge St, Boston","lat":42.35781596261236,"long":-71.12695874868689},
{"service_request_id":"101001122255","status":"closed","status_notes":"Case Closed. Case Noted. Duplicate case we are in the process of changing all litter barrels.","service_name":"Other","service_code":"4f38920fe75084437f0001a0","description":"Disgraceful. Trash barrels that are supposed to be emptied daily have not been serviced since Thursday! All up-and-down Brooks Street.","requested_datetime":"2014-07-06T18:50:29-04:00","updated_datetime":"2014-07-07T10:20:36-04:00","address":"100\u2013198 Eutaw St, Boston","lat":42.37994983064036,"long":-71.03575174695834},
{"service_request_id":"101001122361","status":"closed","status_notes":"Case Closed. Case Referred to External Agency. This parking meters on this block limit are regulated by Massport Authority.","service_name":"Other","service_code":"4f38920fe75084437f0001a0","description":"Meter in front of j pace doesn't work- ate $1.00 worth of quarters.","requested_datetime":"2014-07-07T08:11:49-04:00","updated_datetime":"2014-07-07T10:18:49-04:00","address":"279 Northern Ave, Boston","lat":42.34841066416571,"long":-71.03800862102865},
{"service_request_id":"101001116044","status":"closed","status_notes":"Case Closed. Case Invalid.","service_name":"Other","service_code":"4f38920fe75084437f0001a0","description":"Meter won't accept Boston Meter Card...meter # DA 184","requested_datetime":"2014-06-25T14:30:44-04:00","updated_datetime":"2014-07-07T10:15:34-04:00","address":"135 Clarendon St Boston, MA 02116","lat":42.34863,"long":-71.074057},
{"service_request_id":"101001118355","status":"closed","status_notes":"Case Closed. Case Resolved.","service_name":"Other","service_code":"4f38920fe75084437f0001a0","description":"Parking meter will not accept Boston Meter Card...parking meter # DA 160","requested_datetime":"2014-06-30T08:59:59-04:00","updated_datetime":"2014-07-07T10:15:26-04:00","address":"112-118 Clarendon St Boston, MA 02116","lat":42.347771,"long":-71.073816},
{"service_request_id":"101001122053","status":"closed","status_notes":"Case Closed. Case Invalid. Case noted -.","service_name":"Other","service_code":"4f38920fe75084437f0001a0","description":"Scheduling of the change in garbage pick-up times. While it's nice to have two days of recycling pick-up (if it actually happens), ending up with just one day to put out trash during a holiday week seems like bad planning.","requested_datetime":"2014-07-05T19:39:37-04:00","updated_datetime":"2014-07-07T10:08:35-04:00","address":"5 Hudson St, Boston","lat":42.35094624769718,"long":-71.06013870988637},
{"service_request_id":"101001122042","status":"closed","status_notes":"Case Closed. Case Resolved. Paul Boyd... nothing at location.. done.","service_name":"Other","service_code":"4f38920fe75084437f0001a0","description":"Soiled clothes in alley. They're in a known drug dealing/using location.","requested_datetime":"2014-07-05T18:17:08-04:00","updated_datetime":"2014-07-07T10:07:33-04:00","address":"9\u201315 Utica St, Boston","lat":42.35134307872995,"long":-71.05794792209974},
{"service_request_id":"101001122337","status":"closed","status_notes":"Case Closed. Case Resolved. emptied.","service_name":"Other","service_code":"4f38920fe75084437f0001a0","description":"Trash compactor on Parmenter St full.","requested_datetime":"2014-07-07T07:21:32-04:00","updated_datetime":"2014-07-07T09:46:52-04:00","address":"183 Canal St, Boston, MA, 02114","lat":42.364519,"long":-71.05925},
{"service_request_id":"101001122129","status":"closed","status_notes":"Case Closed. Case Resolved. Done by Tree Crew.","service_name":"Other","service_code":"4f38920fe75084437f0001a0","description":"Downed tree branch in plaza at corner of Arlington, Tremont and I-90.","requested_datetime":"2014-07-06T08:31:37-04:00","updated_datetime":"2014-07-07T09:26:47-04:00","address":"421\u2013423 Tremont St, Boston","lat":42.34722919300417,"long":-71.06898318982782},
{"service_request_id":"101001122214","status":"closed","status_notes":"Case Closed. Case Resolved.","service_name":"Other","service_code":"4f38920fe75084437f0001a0","description":"Cones constantly used","requested_datetime":"2014-07-06T16:35:21-04:00","updated_datetime":"2014-07-07T09:21:36-04:00","address":"34 Norfolk St, Boston","lat":42.32855960428739,"long":-71.0908949934533},
{"service_request_id":"101001122268","status":"closed","status_notes":"Case Closed. Case Resolved. Done by Tree Crew.","service_name":"Other","service_code":"4f38920fe75084437f0001a0","description":"Damaged tree.  Please come and remove damages branch.","requested_datetime":"2014-07-06T19:43:09-04:00","updated_datetime":"2014-07-07T09:21:10-04:00","address":"604 Massachusetts Ave, Boston","lat":42.33729181815156,"long":-71.07779290533725},
{"service_request_id":"101001114552","status":"closed","status_notes":"Case Closed. Case Resolved.","service_name":"Other","service_code":"4f38920fe75084437f0001a0","description":"Theodore street needs street cleaning signs replaced signs are missing on the 2nd and 4th side . The one sign on the street needs to be turned around to face the traffic coming up the street","requested_datetime":"2014-06-24T08:10:41-04:00","updated_datetime":"2014-07-07T09:12:47-04:00","address":"17 Theodore St, Dorchester","lat":42.28434324788009,"long":-71.08767643142392},
{"service_request_id":"101001122453","status":"open","service_name":"Other","service_code":"4f38920fe75084437f0001a0","description":"Sent in months ago.  How do we get these abandoned and Graffitied phones out?","requested_datetime":"2014-07-07T09:09:44-04:00","updated_datetime":"2014-07-07T09:09:42-04:00","address":"Oliver St & Atlantic Ave & Seaport Blvd Boston, MA 02110","lat":42.356828,"long":-71.05109},
{"service_request_id":"101001099386","status":"closed","status_notes":"Case Closed. Case Resolved.","service_name":"Other","service_code":"4f38920fe75084437f0001a0","description":"Need a street cleaning sign here there is  none on this block","requested_datetime":"2014-05-29T08:33:20-04:00","updated_datetime":"2014-07-07T08:43:51-04:00","address":"300 Maverick St, Boston","lat":42.36734076751601,"long":-71.0323079211246},
{"service_request_id":"101001121441","status":"closed","status_notes":"Case Closed. Case Resolved. Hydrant off on Arrival 7/4/2014.","service_name":"Other","service_code":"4f38920fe75084437f0001a0","description":"Open fire hydrant on Clarkson st. Dorchester near or at #66 Clarkson.","requested_datetime":"2014-07-03T15:43:59-04:00","updated_datetime":"2014-07-07T08:29:30-04:00","address":"50 Clarkson St, 1, Dorchester, MA, 02125","lat":42.308189,"long":-71.066929},
{"service_request_id":"101001121917","status":"closed","status_notes":"Case Closed. Case Resolved. done by Tree Crew.","service_name":"Other","service_code":"4f38920fe75084437f0001a0","description":"Tree branch down.","requested_datetime":"2014-07-05T13:39:35-04:00","updated_datetime":"2014-07-07T08:23:43-04:00","address":"65 Sedgwick St, Boston","lat":42.30856489859736,"long":-71.11308457336492},
{"service_request_id":"101001120869","status":"closed","status_notes":"Case Closed. Case Resolved. The City apologizes for the inconvenience  that the fireworks caused. Sincerely,. Mark Cardarelli. Supervisor of Utility Coordination and Compliance. Boston Public Works Department. 617-635-4951 Office.","service_name":"Other","service_code":"4f38920fe75084437f0001a0","description":"Loud fireworks going off for about an hour, across from Star in Mattapn area!","requested_datetime":"2014-07-02T21:34:03-04:00","updated_datetime":"2014-07-07T08:20:35-04:00","address":"15 River St, Boston","lat":42.27221078658581,"long":-71.07022005312513},
{"service_request_id":"101001122353","status":"open","service_name":"Other","service_code":"4f38920fe75084437f0001a0","description":"Low hanging wire","requested_datetime":"2014-07-07T08:05:36-04:00","updated_datetime":"2014-07-07T08:05:35-04:00","address":"61 Cliffmont St Roslindale, MA 02131","lat":42.276445,"long":-71.120747},
{"service_request_id":"101001122010","status":"closed","status_notes":"Case Closed. Case Noted. Will speak with contract supervisor on this matter. Thank you for the call.","service_name":"Other","service_code":"4f38920fe75084437f0001a0","description":"This is how I found my trashcans after garbage pickup by Sunrise. How did they keep their contract for Dorchester?","requested_datetime":"2014-07-05T15:41:36-04:00","updated_datetime":"2014-07-07T07:47:38-04:00","address":"393 Adams St Dorchester, MA 02122","lat":42.295567,"long":-71.056522},
{"service_request_id":"101001110790","status":"closed","status_notes":"Case Closed. Case Resolved. Work completed 7/2/14.","service_name":"Other","service_code":"4f38920fe75084437f0001a0","description":"Signs on both sides of street need to updated they are faded","requested_datetime":"2014-06-18T09:27:42-04:00","updated_datetime":"2014-07-07T07:40:43-04:00","address":"2\u201334 Lithgow St, Boston","lat":42.28988450475694,"long":-71.06984506642196},
{"service_request_id":"101001118174","status":"closed","status_notes":"Case Closed. Case Resolved. fix toy.","service_name":"Other","service_code":"4f38920fe75084437f0001a0","description":"Broken sandbox digger","requested_datetime":"2014-06-29T18:44:58-04:00","updated_datetime":"2014-07-07T07:39:17-04:00","address":"230 W Newton St, Boston","lat":42.34338772487114,"long":-71.07944908558491},
{"service_request_id":"101001121659","status":"closed","status_notes":"Case Closed. Case Noted. The tree in question is not cared for by the BPRD. It is not planted within a sidewalk. Tree is on private property.","service_name":"Other","service_code":"4f38920fe75084437f0001a0","description":"Bad tree at 4 Emerson Place.  Private?","requested_datetime":"2014-07-04T11:17:06-04:00","updated_datetime":"2014-07-07T07:37:39-04:00","address":"2-98 Emerson Pl Boston, MA 02114","lat":42.364385,"long":-71.068557},
{"service_request_id":"101001118568","status":"closed","status_notes":"Case Closed. Case Resolved. Work completed 7/2/14.","service_name":"Other","service_code":"4f38920fe75084437f0001a0","description":"Shoes hanging from street sign for several weeks, need to be removed. Corner of Sawyer and Downer.","requested_datetime":"2014-06-30T11:53:39-04:00","updated_datetime":"2014-07-07T07:36:05-04:00","address":"80\u2013110 Sawyer Ave, Boston","lat":42.31259707333966,"long":-71.06219167223777},
{"service_request_id":"101001117109","status":"closed","status_notes":"Case Closed. Case Resolved. replace button.","service_name":"Other","service_code":"4f38920fe75084437f0001a0","description":"Spray feature in the park will not shut off wasting gallons and gallons of water!","requested_datetime":"2014-06-27T08:10:51-04:00","updated_datetime":"2014-07-07T07:34:54-04:00","address":"30 Fairland St, Boston","lat":42.32405960098125,"long":-71.0788052716023},
{"service_request_id":"101001122336","status":"open","service_name":"Other","service_code":"4f38920fe75084437f0001a0","description":"M Street park South Boston~ dog in the tot lot AGAIN. The same dog owner in his late thirties with gray hair lets his golden retriever urinate in the sand box almost every morning","requested_datetime":"2014-07-07T07:12:23-04:00","updated_datetime":"2014-07-07T07:12:22-04:00","address":"784 E 2nd St, Boston","lat":42.33700433467556,"long":-71.03290726956543},
{"service_request_id":"101001121550","status":"closed","status_notes":"Case Closed. Case Resolved.","service_name":"Other","service_code":"4f38920fe75084437f0001a0","description":"The button for the walk sign does not work. This is the intersection of Humbolt and Seaver streets. The button on the park side.","requested_datetime":"2014-07-03T23:21:16-04:00","updated_datetime":"2014-07-07T07:01:19-04:00","address":"Humboldt Ave, Boston","lat":42.30986198020407,"long":-71.09212838536473},
{"service_request_id":"101001121758","status":"closed","status_notes":"Case Closed. Case Resolved.","service_name":"Other","service_code":"4f38920fe75084437f0001a0","description":"This is a very busy intersection with three restaurants and two bus stops. Pedestrian lights here should be concurrent with the green light cycle, not button activated. Button activated pedestrian lights should be the rare exception not the rule.","requested_datetime":"2014-07-04T23:15:39-04:00","updated_datetime":"2014-07-07T06:59:09-04:00","address":"495 Massachusetts Ave, Boston","lat":42.33933982881091,"long":-71.08046574173734},
{"service_request_id":"101001122316","status":"open","service_name":"Other","service_code":"4f38920fe75084437f0001a0","description":"No bikes allowed  but there are bikes everywhere, speeding and weaving in between pedestrians.  \nThe user entered the address: Head Island Causeway, Boston, Massachusetts to see more details visit: http://seeclickfix.com/issues/1168918","requested_datetime":"2014-07-06T23:40:24-04:00","updated_datetime":"2014-07-06T23:40:19-04:00","address":"Head Island Causeway, Boston, Massachusetts","lat":42.3331454568093,"long":-71.0222039465583},
{"service_request_id":"101001121993","status":"closed","status_notes":"Case Closed. Case Resolved. ALL VEHICLES HAVE PLACARDS AT THIS TIME.","service_name":"Other","service_code":"4f38920fe75084437f0001a0","description":"In handicap spot. No Placard. Non resident too!","requested_datetime":"2014-07-05T14:26:45-04:00","updated_datetime":"2014-07-06T23:09:17-04:00","address":"75 Charter St, Boston","lat":42.36746029932272,"long":-71.05517978786588},
{"service_request_id":"101001122066","status":"closed","status_notes":"Case Closed. Case Resolved. THIS VEHICLE DOES HAVE A SOUTH END RPP STICKER NUMBER 179946.  IT IS LOCATED ON THE PASSENGER REAR WINDOW.  WINDOWS ARE TINTED; BUT, WE DID LOCATE IT.","service_name":"Other","service_code":"4f38920fe75084437f0001a0","description":"BUMC staff without resident parking permits per usual.  Plate reads SRSTAN .   This guy is always here!","requested_datetime":"2014-07-05T21:01:05-04:00","updated_datetime":"2014-07-06T23:06:14-04:00","address":"64 E Brookline St, Boston","lat":42.33784343778011,"long":-71.07029378424801},
{"service_request_id":"101001121541","status":"closed","status_notes":"Case Closed. Case Resolved. AREA CLEAR AT THIS TIME.","service_name":"Other","service_code":"4f38920fe75084437f0001a0","description":"Silver Nissan 65L E66 no permit in resident spot and rejected inspection sticker.","requested_datetime":"2014-07-03T22:43:40-04:00","updated_datetime":"2014-07-06T22:53:28-04:00","address":"936 E Broadway, Boston","lat":42.33591918140109,"long":-71.02644494756412},
{"service_request_id":"101001122121","status":"closed","status_notes":"Case Closed. Case Resolved. AREA CLEAR AT THIS TIME.","service_name":"Other","service_code":"4f38920fe75084437f0001a0","description":"Car blocking handicap ramp","requested_datetime":"2014-07-06T07:37:48-04:00","updated_datetime":"2014-07-06T22:52:12-04:00","address":"32 I St, Boston","lat":42.33702087313154,"long":-71.03994207463323},
{"service_request_id":"101001122305","status":"open","service_name":"Other","service_code":"4f38920fe75084437f0001a0","description":"More fireworks...","requested_datetime":"2014-07-06T22:38:46-04:00","updated_datetime":"2014-07-06T22:38:43-04:00","address":"12 Chesterton St, Boston","lat":42.33008380051919,"long":-71.07068806893292},
{"service_request_id":"101001122290","status":"open","service_name":"Other","service_code":"4f38920fe75084437f0001a0","description":"Two propane grills on Third Floor,please remove ASAP","requested_datetime":"2014-07-06T20:45:07-04:00","updated_datetime":"2014-07-06T20:45:03-04:00","address":"856 E Broadway, Boston","lat":42.3358778016101,"long":-71.03005400215261},
{"service_request_id":"101001122286","status":"open","service_name":"Other","service_code":"4f38920fe75084437f0001a0","description":"Oh boy! Even more fireworks! Maybe tonight's the night my street goes up in flames!","requested_datetime":"2014-07-06T20:27:26-04:00","updated_datetime":"2014-07-06T20:27:25-04:00","address":"5 Chesterton St, Boston","lat":42.33028131171425,"long":-71.07066543779564},
{"service_request_id":"101001122231","status":"open","service_name":"Other","service_code":"4f38920fe75084437f0001a0","description":"Several limos and busses constantly parked in Resident Only parking during Red Sox games. Please tow!","requested_datetime":"2014-07-06T17:27:50-04:00","updated_datetime":"2014-07-06T17:27:48-04:00","address":"6 Charlesgate West, Boston, MA, 02215","lat":42.34753,"long":-71.093371},
{"service_request_id":"101001122219","status":"open","service_name":"Other","service_code":"4f38920fe75084437f0001a0","description":"Tree down. Branches blocking sidewalk at the entrance to the parking lot at the Readville train station","requested_datetime":"2014-07-06T16:55:05-04:00","updated_datetime":"2014-07-06T16:55:03-04:00","address":"1715 Hyde Park Ave, Boston","lat":42.23836507702638,"long":-71.13262957326164},
{"service_request_id":"101001122207","status":"open","service_name":"Other","service_code":"4f38920fe75084437f0001a0","description":"Power lines exposed. And pole has a red marker for replacement.","requested_datetime":"2014-07-06T15:48:13-04:00","updated_datetime":"2014-07-06T15:48:12-04:00","address":"163 Orlando St, Boston","lat":42.27278720591429,"long":-71.10098814598386},
{"service_request_id":"101001122076","status":"closed","status_notes":"Case Closed. Case Resolved.","service_name":"Other","service_code":"4f38920fe75084437f0001a0","description":"Full of it.","requested_datetime":"2014-07-05T21:56:29-04:00","updated_datetime":"2014-07-06T14:23:01-04:00","address":"627 Tremont St, Boston","lat":42.34246171210368,"long":-71.07454173273507},
{"service_request_id":"101001122181","status":"open","service_name":"Other","service_code":"4f38920fe75084437f0001a0","description":"Bike lane on Morton needs street sweeping. Full of tree debris and litter","requested_datetime":"2014-07-06T14:11:48-04:00","updated_datetime":"2014-07-06T14:11:48-04:00","address":"300-426 Morton St Boston, MA 02124","lat":42.294785,"long":-71.097912},
{"service_request_id":"101001122148","status":"open","service_name":"Other","service_code":"4f38920fe75084437f0001a0","description":"Trash dumping needs to be cleaned","requested_datetime":"2014-07-06T10:55:56-04:00","updated_datetime":"2014-07-06T10:55:54-04:00","address":"David G Mugar Way, Boston","lat":42.35588417858104,"long":-71.07335602871242},
{"service_request_id":"101001122147","status":"open","service_name":"Other","service_code":"4f38920fe75084437f0001a0","description":"Location of tree leaning on wires is 500/502 east 4th street (please see previous report which erroneously listed at 494 east 4th)","requested_datetime":"2014-07-06T10:36:27-04:00","updated_datetime":"2014-07-06T10:36:26-04:00","address":"502 E 4th St, Boston","lat":42.33469333423461,"long":-71.04502259761584},
{"service_request_id":"101001122146","status":"open","service_name":"Other","service_code":"4f38920fe75084437f0001a0","description":"Tree leaning on comcast and phone wires.  Tree is making cracking sounds and seems to be leaning more and more on the wires","requested_datetime":"2014-07-06T10:31:40-04:00","updated_datetime":"2014-07-06T10:31:39-04:00","address":"494 E 4th St, Boston","lat":42.33460195096874,"long":-71.04518713768357},
{"service_request_id":"101001122137","status":"open","service_name":"Other","service_code":"4f38920fe75084437f0001a0","description":"Teenagers on bikes were breaking bottles in Titus Sparrow Park last night. There is glass all over the park this morning.  Please consider increasing police patrols of the area.","requested_datetime":"2014-07-06T09:29:40-04:00","updated_datetime":"2014-07-06T09:29:35-04:00","address":"59\u201399 W Rutland Sq, Boston","lat":42.34349547774066,"long":-71.07976852465636},
{"service_request_id":"101001122113","status":"open","service_name":"Other","service_code":"4f38920fe75084437f0001a0","description":"This girl consistency refuses to pick up after her dog.  She walks her dog around 9:00 am on weekends.","requested_datetime":"2014-07-06T05:20:23-04:00","updated_datetime":"2014-07-06T05:20:18-04:00","address":"41 Portsmouth St Boston, MA 02135","lat":42.359192,"long":-71.144613},
{"service_request_id":"101001122100","status":"open","service_name":"Other","service_code":"4f38920fe75084437f0001a0","description":"Extremely loud fireworks. Non-stop activity all night long. Please arrest those setting them off.","requested_datetime":"2014-07-06T00:04:12-04:00","updated_datetime":"2014-07-06T00:04:00-04:00","address":"137\u2013207 Westview St, Boston","lat":42.29079892529695,"long":-71.08525446764048},
{"service_request_id":"101001122098","status":"open","service_name":"Other","service_code":"4f38920fe75084437f0001a0","description":"Fireworks and firecrackers have been going on non stop in the immediate vicinity no letting up for at least 7-8 hours. Concerned about the potential for another fire in the neighborhood...","requested_datetime":"2014-07-05T23:46:29-04:00","updated_datetime":"2014-07-05T23:46:17-04:00","address":"15 Allerton St, Boston","lat":42.32937746442305,"long":-71.07140447022736},
{"service_request_id":"101001122097","status":"open","service_name":"Other","service_code":"4f38920fe75084437f0001a0","description":"Since 3pm, fireworks are being shot off. Some hit my apartment window. No end in sight.","requested_datetime":"2014-07-05T23:34:18-04:00","updated_datetime":"2014-07-05T23:34:06-04:00","address":"8 Chesterton St, Boston","lat":42.33015445996288,"long":-71.07059352106515},
{"service_request_id":"101001122096","status":"open","service_name":"Other","service_code":"4f38920fe75084437f0001a0","description":"Illegal, loud fireworks activity in/near Odwin Learning Center.","requested_datetime":"2014-07-05T23:32:53-04:00","updated_datetime":"2014-07-05T23:32:41-04:00","address":"1910\u20131922 Dorchester Ave, Boston","lat":42.28537167898599,"long":-71.06433631034697},
{"service_request_id":"101001122094","status":"open","service_name":"Other","service_code":"4f38920fe75084437f0001a0","description":"Extremely loud fireworks activity.","requested_datetime":"2014-07-05T23:25:17-04:00","updated_datetime":"2014-07-05T23:25:05-04:00","address":"405 Washington St, Boston","lat":42.29751380406333,"long":-71.07279938638212},
{"service_request_id":"101001122085","status":"open","service_name":"Other","service_code":"4f38920fe75084437f0001a0","description":"Fireworks","requested_datetime":"2014-07-05T22:15:31-04:00","updated_datetime":"2014-07-05T22:15:18-04:00","address":"143 Forest Hills St, Boston","lat":42.30756059635253,"long":-71.10266912602434},
{"service_request_id":"101001122068","status":"open","service_name":"Other","service_code":"4f38920fe75084437f0001a0","description":"Fireworks non stop.","requested_datetime":"2014-07-05T21:09:49-04:00","updated_datetime":"2014-07-05T21:09:37-04:00","address":"2110 Dorchester Ave, Boston","lat":42.27682667642059,"long":-71.06631967245231},
{"service_request_id":"101001122067","status":"open","service_name":"Other","service_code":"4f38920fe75084437f0001a0","description":"Illegal firewirks going off Barnes Ave near oil company","requested_datetime":"2014-07-05T21:06:39-04:00","updated_datetime":"2014-07-05T21:06:28-04:00","address":"1158-1176 Saratoga St Boston, MA 02128","lat":42.384092,"long":-70.999539},
{"service_request_id":"101001122045","status":"open","service_name":"Other","service_code":"4f38920fe75084437f0001a0","description":"Illegals bus parking blocking roads again","requested_datetime":"2014-07-05T18:43:17-04:00","updated_datetime":"2014-07-05T18:43:09-04:00","address":"1 Lincoln St, Boston","lat":42.35323625155012,"long":-71.059035966239},
{"service_request_id":"101001122037","status":"open","service_name":"Other","service_code":"4f38920fe75084437f0001a0","description":"Extremely loud spanish music on Barnes Ave behind attorney Boncore  building can hear loud on Saratoga st near 1123","requested_datetime":"2014-07-05T18:00:35-04:00","updated_datetime":"2014-07-05T18:00:26-04:00","address":"1119-1121 Saratoga St Boston, MA 02128","lat":42.384771,"long":-71.001451},
{"service_request_id":"101001122017","status":"open","service_name":"Other","service_code":"4f38920fe75084437f0001a0","description":"How can someone who lives in public housing and gets public housing  assistance able to run a private Buisness out of that housing. You walk by and they advertise the daycare they run on public property.  How can the city, BHA allow this to continue on our tax dollars.","requested_datetime":"2014-07-05T16:26:25-04:00","updated_datetime":"2014-07-05T16:26:15-04:00","address":"151\u2013153 W Broadway, Boston","lat":42.34052790348229,"long":-71.05375803524817},