[{"service_request_id":"101001034943","status":"closed","status_notes":"Case Closed. Case Resolved. AT THAT LOCATION SPACE SAVER PICKED UP BY DIST#4 CREW.","service_name":"Other","service_code":"4f38920fe75084437f0001a0","description":"Space savers still in use (paint can, garbage barrels)","requested_datetime":"2014-02-24T11:30:19-05:00","updated_datetime":"2014-02-25T12:10:12-05:00","address":"98 Bennett St Brighton, MA 02135","lat":42.351865,"long":-71.158311},
{"service_request_id":"101001034002","status":"closed","status_notes":"Case Closed. Case Resolved. AT THAT LOCATION ROADWAY PATCH BY DIST#4.","service_name":"Other","service_code":"4f38920fe75084437f0001a0","description":"Space saver outside 52 Matchett St. in Brighton. Last snow emergency was over 3 weeks ago!","requested_datetime":"2014-02-22T16:48:21-05:00","updated_datetime":"2014-02-25T12:00:16-05:00","address":"52 Matchett St, Boston","lat":42.35418486728833,"long":-71.16993055706885},
{"service_request_id":"101001035909","status":"open","service_name":"Other","service_code":"4f38920fe75084437f0001a0","description":"Is there a problem with the server or app? Very slow  and not working well for weeks.","requested_datetime":"2014-02-25T11:45:21-05:00","updated_datetime":"2014-02-25T11:45:19-05:00","address":"11 W Broadway, Boston","lat":42.34261628899331,"long":-71.05697127492189},
{"service_request_id":"101001035313","status":"closed","status_notes":"Case Closed. Case Resolved. done.","service_name":"Other","service_code":"4f38920fe75084437f0001a0","description":"This couch and other trash has been on the sidewalk for about 3 weeks. It's was there for so long it was under a pile of snow until it melted this past weekend. Please ticket. It's an eyesore!","requested_datetime":"2014-02-24T16:25:02-05:00","updated_datetime":"2014-02-25T10:31:44-05:00","address":"520 E 3rd St, Boston","lat":42.33650620919441,"long":-71.03890402459889},
{"service_request_id":"101001033692","status":"closed","status_notes":"Case Closed. Case Resolved. Has been removed.","service_name":"Other","service_code":"4f38920fe75084437f0001a0","requested_datetime":"2014-02-22T06:53:39-05:00","updated_datetime":"2014-02-25T10:07:03-05:00","address":"1\u201339 John Eliot Sq, Boston","lat":42.32981574725576,"long":-71.09079432680373},
{"service_request_id":"101001032408","status":"closed","status_notes":"Case Closed. Case Resolved. christmas wreaths are still in a lot of lught poles un charlestown parks dept not responsable for removal but we did remove them from park.","service_name":"Other","service_code":"4f38920fe75084437f0001a0","description":"Christmas Decorations still on light posts in Eden Street Park.","requested_datetime":"2014-02-20T22:38:17-05:00","updated_datetime":"2014-02-25T09:55:09-05:00","address":"2\u201316 Eden St, Boston","lat":42.3790899026648,"long":-71.06823409923683},
{"service_request_id":"101001035492","status":"closed","status_notes":"Case Closed. Case Resolved. Vehicle gone. Every vehicle has resident sticker.","service_name":"Other","service_code":"4f38920fe75084437f0001a0","description":"No resident sticker.  Out of state plates.","requested_datetime":"2014-02-25T06:54:08-05:00","updated_datetime":"2014-02-25T09:51:18-05:00","address":"2\u201310 Devine Way, Boston","lat":42.32858826599807,"long":-71.05664587447264},
{"service_request_id":"101001035515","status":"closed","status_notes":"Case Closed. Case Noted. No out of state vehicles on street. All vehicles have resident stickers.","service_name":"Other","service_code":"4f38920fe75084437f0001a0","description":"No resident sticker.  Out of state plate.","requested_datetime":"2014-02-25T07:36:20-05:00","updated_datetime":"2014-02-25T09:50:36-05:00","address":"6 Devine Way, Boston","lat":42.32858256754908,"long":-71.05659990243733},
{"service_request_id":"101001035490","status":"closed","status_notes":"Case Closed. Case Resolved. Vehicle gone.","service_name":"Other","service_code":"4f38920fe75084437f0001a0","description":"Three cars w/o resident stickers.  All out of state plates.","requested_datetime":"2014-02-25T06:49:26-05:00","updated_datetime":"2014-02-25T09:46:11-05:00","address":"11\u201315 Devine Way, Boston","lat":42.3285581063862,"long":-71.05603720960968},
{"service_request_id":"101001032495","status":"closed","status_notes":"Case Closed. Case Noted. cited for ice on the sidewalk.","service_name":"Other","service_code":"4f38920fe75084437f0001a0","description":"Unshoveled walk. Thick icy buildup","requested_datetime":"2014-02-21T08:03:51-05:00","updated_datetime":"2014-02-25T09:29:33-05:00","address":"75 Glen Rd Boston, MA 02130","lat":42.308416,"long":-71.10093},
{"service_request_id":"101001034187","status":"closed","status_notes":"Case Closed. Case Noted. cited for loose trash and debris.","service_name":"Other","service_code":"4f38920fe75084437f0001a0","description":"Unsanitary conditions. Trash everywhere.","requested_datetime":"2014-02-23T08:41:59-05:00","updated_datetime":"2014-02-25T09:26:35-05:00","address":"179-185 Essex St, Boston","lat":42.35162659086506,"long":-71.05743988423707},
{"service_request_id":"101001034366","status":"closed","status_notes":"Case Closed. Case Noted. no violation appon arrival.","service_name":"Other","service_code":"4f38920fe75084437f0001a0","description":"Overflowing dumpster at rear of 23 St Stephen St","requested_datetime":"2014-02-23T14:51:29-05:00","updated_datetime":"2014-02-25T09:25:25-05:00","address":"19-29 St Stephen St Northeastern University Boston, MA 02115","lat":42.342857,"long":-71.086448},
{"service_request_id":"101001034305","status":"closed","status_notes":"Case Closed. Case Noted. no violation.","service_name":"Other","service_code":"4f38920fe75084437f0001a0","description":"Open trash in back of building - never use barrels and trash spilling into alley","requested_datetime":"2014-02-23T12:52:59-05:00","updated_datetime":"2014-02-25T09:24:55-05:00","address":"119 W Newton St, Boston","lat":42.34185177381251,"long":-71.076860083416},
{"service_request_id":"101001034362","status":"closed","status_notes":"Case Closed. Case Noted. cited for improper storage of trash.","service_name":"Other","service_code":"4f38920fe75084437f0001a0","description":"Overflowing trash.... And this is not a dump ground for trash pick up!!!","requested_datetime":"2014-02-23T14:28:38-05:00","updated_datetime":"2014-02-25T09:24:24-05:00","address":"110 Saint Botolph St, Boston","lat":42.34434837479363,"long":-71.08113124973241},
{"service_request_id":"101001034748","status":"closed","status_notes":"Case Closed. Case Noted. no violation.","service_name":"Other","service_code":"4f38920fe75084437f0001a0","description":"What a disgrace that the city gave violation for barrels in my allyway on my property. Mother died and trynig to clean apt. Boston sends someone on Sunday for ticket because old man next door has nothing better to do.","requested_datetime":"2014-02-24T09:55:21-05:00","updated_datetime":"2014-02-25T09:23:53-05:00","address":"Saratoga Street, Boston","lat":42.383571,"long":-71.0176985},
{"service_request_id":"101001034420","status":"closed","status_notes":"Case Closed. Case Noted. cited for trash out early.","service_name":"Other","service_code":"4f38920fe75084437f0001a0","description":"Trash barells and construction waste on street 3 days after pick up.","requested_datetime":"2014-02-23T18:01:53-05:00","updated_datetime":"2014-02-25T09:23:05-05:00","address":"74 Bremen St, Boston","lat":42.37046843864245,"long":-71.03715416981939},
{"service_request_id":"101001034027","status":"closed","status_notes":"Case Closed. Case Noted. cited for improper storage of trash.","service_name":"Other","service_code":"4f38920fe75084437f0001a0","description":"Trash","requested_datetime":"2014-02-22T17:35:31-05:00","updated_datetime":"2014-02-25T09:22:35-05:00","address":"102 St Botolph St Boston, MA 02115","lat":42.344528,"long":-71.080932},
{"service_request_id":"101001035152","status":"closed","status_notes":"Case Closed. Case Noted. no violation.","service_name":"Other","service_code":"4f38920fe75084437f0001a0","description":"Garbage strewn about the sidewalk between 3 and 7 Phillips. Recurring problem.","requested_datetime":"2014-02-24T14:03:33-05:00","updated_datetime":"2014-02-25T09:22:24-05:00","address":"5-5A Phillips St, Boston","lat":42.36036619566937,"long":-71.0666007179848},
{"service_request_id":"101001034025","status":"closed","status_notes":"Case Closed. Case Noted. cited for improper storage of the recycling.","service_name":"Other","service_code":"4f38920fe75084437f0001a0","description":"Lots of household trash","requested_datetime":"2014-02-22T17:34:29-05:00","updated_datetime":"2014-02-25T09:22:03-05:00","address":"102 St Botolph St Boston, MA 02115","lat":42.344528,"long":-71.080932},
{"service_request_id":"101001034175","status":"closed","status_notes":"Case Closed. Case Noted. cited for loose trash and debris.","service_name":"Other","service_code":"4f38920fe75084437f0001a0","description":"Trash all over the sidewalk","requested_datetime":"2014-02-23T07:25:28-05:00","updated_datetime":"2014-02-25T09:21:44-05:00","address":"99 Myrtle St, Boston","lat":42.35930951100026,"long":-71.06804793715895},
{"service_request_id":"101001034338","status":"closed","status_notes":"Case Closed. Case Noted. cited for loose trash and debris.","service_name":"Other","service_code":"4f38920fe75084437f0001a0","description":"Disgusting trash. 15 Irving Street rents to college kids who constantly put trash out on wrong days and not in secure bags. Rats constantly get into and tear apart their trash.","requested_datetime":"2014-02-23T13:58:48-05:00","updated_datetime":"2014-02-25T09:20:31-05:00","address":"15 Irving St Boston, MA 02114","lat":42.360623,"long":-71.066423},
{"service_request_id":"101001033827","status":"closed","status_notes":"Case Closed. Case Noted. cited for trash out early.","service_name":"Other","service_code":"4f38920fe75084437f0001a0","description":"There is trash outside this house from Thursdays trash collection.  Trash was improperly bagged.  Please issue a green ticket to get the landlord to do something about this problem building","requested_datetime":"2014-02-22T11:26:02-05:00","updated_datetime":"2014-02-25T09:20:18-05:00","address":"66 Bremen St, Boston","lat":42.37024878882607,"long":-71.03746226505965},
{"service_request_id":"101001033781","status":"closed","status_notes":"Case Closed. Case Noted. no evidence, CEP will monitor.","service_name":"Other","service_code":"4f38920fe75084437f0001a0","description":"Trash out on non trash day","requested_datetime":"2014-02-22T09:53:50-05:00","updated_datetime":"2014-02-25T09:19:56-05:00","address":"Intersection of Phillips St and Coburn Ct, Boston, MA","lat":42.360315,"long":-71.067407},
{"service_request_id":"101001034210","status":"closed","status_notes":"Case Closed. Case Noted. cited for trash out early.","service_name":"Other","service_code":"4f38920fe75084437f0001a0","description":"Trash out early","requested_datetime":"2014-02-23T09:46:46-05:00","updated_datetime":"2014-02-25T09:19:36-05:00","address":"159 Worcester St, Boston","lat":42.34150837645153,"long":-71.08017043217185},
{"service_request_id":"101001034297","status":"closed","status_notes":"Case Closed. Case Noted. today is trash day, unable to cite at this time.","service_name":"Other","service_code":"4f38920fe75084437f0001a0","description":"Trash always out on sundays","requested_datetime":"2014-02-23T12:36:29-05:00","updated_datetime":"2014-02-25T09:18:53-05:00","address":"46 Commonwealth Ave, Boston","lat":42.35291258102733,"long":-71.07349531091485},
{"service_request_id":"101001033503","status":"closed","status_notes":"Case Closed. Case Noted. cited for trash out early.","service_name":"Other","service_code":"4f38920fe75084437f0001a0","description":"42 Beach st, chinatown, again resident dump trash on sidewalk, friday evening, trash will sit thru the weekend til monday.","requested_datetime":"2014-02-21T17:41:20-05:00","updated_datetime":"2014-02-25T09:13:39-05:00","address":"Intersection of Beach St and Harrison Ave, Boston, MA","lat":42.351469,"long":-71.061057},
{"service_request_id":"101001034012","status":"closed","status_notes":"Case Closed. Case Noted. no violation, trash was out for city pickup.","service_name":"Other","service_code":"4f38920fe75084437f0001a0","description":"Trash barrels left out on non trash daya","requested_datetime":"2014-02-22T17:13:53-05:00","updated_datetime":"2014-02-25T09:11:12-05:00","address":"129 Chiswick Rd, Boston","lat":42.34074583281049,"long":-71.15321595228384},
{"service_request_id":"101001034013","status":"closed","status_notes":"Case Closed. Case Noted. no violation, trash was out for city pickup.","service_name":"Other","service_code":"4f38920fe75084437f0001a0","description":"Open trash barrels","requested_datetime":"2014-02-22T17:16:47-05:00","updated_datetime":"2014-02-25T09:10:28-05:00","address":"163 Strathmore Rd, Boston","lat":42.33995358734352,"long":-71.15361358983913},
{"service_request_id":"101001031266","status":"closed","status_notes":"Case Closed. Case Noted. cited for trash and debris on the property.","service_name":"Other","service_code":"4f38920fe75084437f0001a0","description":"Trash and debris in front yard blocking sidewalk.  Trash pick up is two days away.","requested_datetime":"2014-02-20T08:59:10-05:00","updated_datetime":"2014-02-25T09:08:56-05:00","address":"93 Sheridan St, Boston","lat":42.31961995832838,"long":-71.10636228702131},
{"service_request_id":"101001031908","status":"closed","status_notes":"Case Closed. Case Noted. no violation.","service_name":"Other","service_code":"4f38920fe75084437f0001a0","description":"This is what my neighbors just put out for trash day.. No wonder it ends up all over the neighborhood","requested_datetime":"2014-02-20T13:23:54-05:00","updated_datetime":"2014-02-25T09:07:51-05:00","address":"225 Chelsea St Boston, MA 02128","lat":42.375223,"long":-71.032349},
{"service_request_id":"101001028860","status":"closed","status_notes":"Case Closed. Case Noted. no violation.","service_name":"Other","service_code":"4f38920fe75084437f0001a0","description":"The Chiropractor's office leaves their trash barrels out all day 7 days of week.  They have been doing this for over a year now.  Often there will be loose trash accompanying it.  And in this case, it is overflowing the sidewalk.\n\n( note the location here is across the street from 129 Pinckney St )","requested_datetime":"2014-02-17T16:53:28-05:00","updated_datetime":"2014-02-25T09:05:51-05:00","address":"100\u2013102 Pinckney St, Boston","lat":42.35874320371263,"long":-71.07106768934597},
{"service_request_id":"101001033957","status":"closed","status_notes":"Case Closed. Case Resolved.","service_name":"Other","service_code":"4f38920fe75084437f0001a0","description":"Traffic light blinking yellow and red.","requested_datetime":"2014-02-22T15:17:45-05:00","updated_datetime":"2014-02-25T09:00:58-05:00","address":"360 Cummins Hwy, Boston","lat":42.27815295676215,"long":-71.11540078333506},
{"service_request_id":"101001034195","status":"closed","status_notes":"Case Closed. Case Resolved. at that location broken t.v. picked by by DIST#4 CREW.","service_name":"Other","service_code":"4f38920fe75084437f0001a0","description":"Smashed tv w glass in road in front of driveway to 22 park vale ave 02134","requested_datetime":"2014-02-23T08:56:03-05:00","updated_datetime":"2014-02-25T08:32:06-05:00","address":"18-22 Parkvale Ave, Boston","lat":42.35146910524196,"long":-71.13314556940965},
{"service_request_id":"101001033116","status":"closed","status_notes":"Case Closed. Case Resolved. No vehicles in violation. Officer will check daily.","service_name":"Other","service_code":"4f38920fe75084437f0001a0","description":"around the corner on first st construction cars parked in no parking zone making it hard and unsafe for cars and trucks traveling here place attend too","requested_datetime":"2014-02-21T13:12:34-05:00","updated_datetime":"2014-02-25T08:19:44-05:00","address":"345 D St, Boston","lat":42.34048059110808,"long":-71.04863345852836},
{"service_request_id":"101001035532","status":"open","service_name":"Other","service_code":"4f38920fe75084437f0001a0","description":"FILTHY construction site - trash from site, trash barrels, t station, 7-11, panhandlers has all accumulated under and around the staging","requested_datetime":"2014-02-25T08:05:13-05:00","updated_datetime":"2014-02-25T08:05:08-05:00","address":"261 Dartmouth St, Boston","lat":42.35019453553899,"long":-71.07737476395025},
{"service_request_id":"101001035529","status":"open","service_name":"Other","service_code":"4f38920fe75084437f0001a0","description":"239  L Street didn't put all trash out on trash day","requested_datetime":"2014-02-25T07:58:33-05:00","updated_datetime":"2014-02-25T07:58:24-05:00","address":"239 L St, Boston","lat":42.33050038110682,"long":-71.03533831431626},
{"service_request_id":"101001035526","status":"open","service_name":"Other","service_code":"4f38920fe75084437f0001a0","description":"247 L street south boston did not put trash out on trash day.","requested_datetime":"2014-02-25T07:55:52-05:00","updated_datetime":"2014-02-25T07:55:42-05:00","address":"247 L St, Boston","lat":42.33011858541735,"long":-71.03534284054398},
{"service_request_id":"101001034317","status":"closed","status_notes":"Case Closed. Case Resolved. DOOR REINSTALLED.","service_name":"Other","service_code":"4f38920fe75084437f0001a0","description":"Street light electric control box door broken off. Wiring exposed to public. Very dangerous","requested_datetime":"2014-02-23T13:11:58-05:00","updated_datetime":"2014-02-25T07:24:26-05:00","address":"5 Dwight St Boston, MA 02118","lat":42.343989,"long":-71.067791},
{"service_request_id":"101001035120","status":"closed","status_notes":"Case Closed. Case Resolved. case resolved. recycle collected 2/24.","service_name":"Other","service_code":"4f38920fe75084437f0001a0","description":"For two weeks we Have left a barrel with a city issued recycling sticker on it by the curb. For two weeks the recycling truck has ignored it or knocked it over and not emptied it. Please pick up.","requested_datetime":"2014-02-24T13:44:17-05:00","updated_datetime":"2014-02-25T07:24:21-05:00","address":"24 26 Falkland St, Brighton","lat":42.35484916580224,"long":-71.15867521674838},
{"service_request_id":"101001034517","status":"closed","status_notes":"Case Closed. Case Resolved. PICKED UP AND REPLACED.","service_name":"Other","service_code":"4f38920fe75084437f0001a0","description":"Control box knocked over","requested_datetime":"2014-02-23T23:31:12-05:00","updated_datetime":"2014-02-25T07:18:45-05:00","address":"1331-1333 Dorchester Ave, Boston","lat":42.30524273127532,"long":-71.0591445957041},
{"service_request_id":"101001033850","status":"closed","status_notes":"Case Closed. Case Noted. The Boston Parks Department did not install the tree fences on Charles Street. They were approved by the Boston Parks Department but were paid for and installed by the Bacon Hill Civic Association and are cared for be them as well.","service_name":"Other","service_code":"4f38920fe75084437f0001a0","description":"New tree guards already rusted","requested_datetime":"2014-02-22T12:03:25-05:00","updated_datetime":"2014-02-25T07:15:31-05:00","address":"49-49B Charles St, Boston","lat":42.35740212593057,"long":-71.07004383579478},
{"service_request_id":"101001034562","status":"closed","status_notes":"Case Closed. Case Resolved.","service_name":"Other","service_code":"4f38920fe75084437f0001a0","description":"blinking traffic light at intersection that normally has a regular light... dangerous... already was one accident this weekend.","requested_datetime":"2014-02-24T06:51:47-05:00","updated_datetime":"2014-02-25T07:06:11-05:00","address":"241 Walnut Ave, Boston","lat":42.31830627665801,"long":-71.09095111886231},
{"service_request_id":"101001035249","status":"closed","status_notes":"Case Closed. Case Resolved.","service_name":"Other","service_code":"4f38920fe75084437f0001a0","description":"The lights at Market and Guest are flashing. It's a busy intersection and they're never flashing this time of the day on a weekday.","requested_datetime":"2014-02-24T15:25:12-05:00","updated_datetime":"2014-02-25T06:56:36-05:00","address":"148 Market St Boston, MA 02135","lat":42.357361,"long":-71.148351},
{"service_request_id":"101001033815","status":"closed","status_notes":"Case Closed. Case Resolved. went to said location and area was clean.","service_name":"Other","service_code":"4f38920fe75084437f0001a0","description":"Trash and booze bottles everywhere. The homeless really went to town last night. The whole street is littered with garbage.","requested_datetime":"2014-02-22T11:07:30-05:00","updated_datetime":"2014-02-25T06:23:34-05:00","address":"1-15 Irving St Boston, MA 02114","lat":42.360969,"long":-71.066403},
{"service_request_id":"101001034251","status":"closed","status_notes":"Case Closed. Case Resolved. GM picked up TV.","service_name":"Other","service_code":"4f38920fe75084437f0001a0","description":"TV.\n In front of church the has been buried under the snow needs to be removed","requested_datetime":"2014-02-23T11:02:59-05:00","updated_datetime":"2014-02-25T06:22:30-05:00","address":"90 Windsor St, Boston","lat":42.33511901930192,"long":-71.08430061495963},
{"service_request_id":"101001033705","status":"closed","status_notes":"Case Closed. Case Resolved. GM went to location and could not find issue.","service_name":"Other","service_code":"4f38920fe75084437f0001a0","description":"Trash has not been picked up for a week. It was overflowing before the rain packed it down.","requested_datetime":"2014-02-22T07:32:39-05:00","updated_datetime":"2014-02-25T06:21:41-05:00","address":"2\u201324 Barlow St, Boston","lat":42.29596208202096,"long":-71.11302543014858},
{"service_request_id":"101001034260","status":"closed","status_notes":"Case Closed. Case Resolved. GM picked up containers.","service_name":"Other","service_code":"4f38920fe75084437f0001a0","description":"Two 5 gallon buckets of oil dumped in snow bank and spilling all over road and into gutters. Oil also has hard black things in it. Smells like cross of gasoline and oil. \nHow do I take care of this?\nThanks, \nJoe","requested_datetime":"2014-02-23T11:23:10-05:00","updated_datetime":"2014-02-25T06:20:07-05:00","address":"40 Stedman St, Boston","lat":42.30416791983163,"long":-71.10728915787405},
{"service_request_id":"101001033536","status":"closed","status_notes":"Case Closed. Case Resolved. GM picked up debris.","service_name":"Other","service_code":"4f38920fe75084437f0001a0","description":"Corner of Warren and Soley St Charlestown. Been here a week plus!!!!?","requested_datetime":"2014-02-21T19:10:40-05:00","updated_datetime":"2014-02-25T06:18:33-05:00","address":"2\u201324 Soley St, Boston","lat":42.37400032118184,"long":-71.06184314943017},
{"service_request_id":"101001033524","status":"closed","status_notes":"Case Closed. Case Resolved. PWD went to said location and found loader owed by Caruso& McGovern of Georgetown MA. which is sitting on the property of Bunker hill Mall the was no evidence of a leak by this vehicle.","service_name":"Other","service_code":"4f38920fe75084437f0001a0","description":"Let's try this again: this location is on the corner of the intersection of the Rutherford Avenue on ramp and School street. This is in the parking lot just north of the 99 Restaurant. The machine has been sitting here for weeks and it is leaking oil directly into a storm water catch basin. It won't take a detective to find.","requested_datetime":"2014-02-21T18:41:15-05:00","updated_datetime":"2014-02-25T06:15:03-05:00","address":"58\u201398 W School St, Boston","lat":42.3750948874036,"long":-71.06760045505742},
{"service_request_id":"101001033876","status":"closed","status_notes":"Case Closed. Case Resolved. GM 2 took care of.","service_name":"Other","service_code":"4f38920fe75084437f0001a0","description":"Trash rotting in snowbank","requested_datetime":"2014-02-22T12:27:30-05:00","updated_datetime":"2014-02-25T05:56:30-05:00","address":"443\u2013459 Commercial St, Boston","lat":42.36750870481354,"long":-71.0530584119922},
{"service_request_id":"101001034152","status":"closed","status_notes":"Case Closed. Case Resolved. GM 2  took care of.","service_name":"Other","service_code":"4f38920fe75084437f0001a0","description":"Tv and trash on the sidewalk","requested_datetime":"2014-02-23T00:30:21-05:00","updated_datetime":"2014-02-25T05:52:24-05:00","address":"67\u201399 Greenough Ln, Boston","lat":42.36730572710326,"long":-71.05299144060155},
{"service_request_id":"101001033888","status":"closed","status_notes":"Case Closed. Case Resolved. gm picked up debris.","service_name":"Other","service_code":"4f38920fe75084437f0001a0","description":"Trash, broken glass all over sidewalk. Please remove.","requested_datetime":"2014-02-22T12:58:27-05:00","updated_datetime":"2014-02-25T05:03:45-05:00","address":"72-110 Mercer St, Boston","lat":42.33139770575085,"long":-71.04896787560642},
{"service_request_id":"101001033951","status":"closed","status_notes":"Case Closed. Case Resolved. GM picked up glass debris.","service_name":"Other","service_code":"4f38920fe75084437f0001a0","description":"Glass and trash all over the place. Please remove.","requested_datetime":"2014-02-22T15:05:27-05:00","updated_datetime":"2014-02-25T05:02:58-05:00","address":"296 E 8th St, Boston","lat":42.33143521506973,"long":-71.0488601680663},
{"service_request_id":"101001033683","status":"closed","status_notes":"Case Closed. Case Resolved. Went to said location did not find trash bin.","service_name":"Other","service_code":"4f38920fe75084437f0001a0","description":"Overloaded trash bin","requested_datetime":"2014-02-22T06:37:35-05:00","updated_datetime":"2014-02-25T04:52:55-05:00","address":"Public Alley 437, Boston","lat":42.35263501763563,"long":-71.0730168969101},
{"service_request_id":"101001032225","status":"closed","status_notes":"Case Closed. Case Resolved. went to said location item gone.","service_name":"Other","service_code":"4f38920fe75084437f0001a0","description":"Abandoned arm chair.  Gentle Giant moving company did move in or move out at 119 Beacon and left it behind.","requested_datetime":"2014-02-20T16:08:23-05:00","updated_datetime":"2014-02-25T04:50:19-05:00","address":"119 Beacon St, Boston","lat":42.35505229169513,"long":-71.07354437019649},
{"service_request_id":"101001033865","status":"closed","status_notes":"Case Closed. Case Resolved. GM picked up toilet.","service_name":"Other","service_code":"4f38920fe75084437f0001a0","description":"Toilet on sidewalk 7 days","requested_datetime":"2014-02-22T12:14:05-05:00","updated_datetime":"2014-02-25T04:48:54-05:00","address":"76 Church St, Boston","lat":42.30826352726883,"long":-71.05985244742693},
{"service_request_id":"101001033830","status":"closed","status_notes":"Case Closed. Case Resolved. dead animal picked up.","service_name":"Other","service_code":"4f38920fe75084437f0001a0","description":"Dead, pungent skunk in the middle of the road.","requested_datetime":"2014-02-22T11:31:28-05:00","updated_datetime":"2014-02-25T04:47:42-05:00","address":"188-212 Geneva Ave Boston, MA 02121","lat":42.30476,"long":-71.07374},
{"service_request_id":"101001035449","status":"open","service_name":"Other","service_code":"4f38920fe75084437f0001a0","description":"Car parked in front of fire hydrant","requested_datetime":"2014-02-24T22:51:15-05:00","updated_datetime":"2014-02-24T22:51:09-05:00","address":"36 Colwell Ave, Brighton, MA, 02135","lat":42.342618,"long":-71.155996},
{"service_request_id":"101001033626","status":"closed","status_notes":"Case Closed. Case Resolved. complaint given to route officers will monitor.","service_name":"Other","service_code":"4f38920fe75084437f0001a0","description":"Car parked in front of fire hydrant nightly. Please come to take care of issue. Nightly between 6p & 8a","requested_datetime":"2014-02-22T00:03:28-05:00","updated_datetime":"2014-02-24T22:47:54-05:00","address":"35 Colwell Ave Boston, MA 02135","lat":42.342618,"long":-71.155929},
{"service_request_id":"101001033648","status":"closed","status_notes":"Case Closed. Case Resolved. this area is patrolled on a regular bases when the BTD is working weekend parking issues should go to 911.","service_name":"Other","service_code":"4f38920fe75084437f0001a0","description":"Please ticket or tow Toyota parked in tow zone every weekend night","requested_datetime":"2014-02-22T01:17:58-05:00","updated_datetime":"2014-02-24T22:47:07-05:00","address":"133\u2013199 Westbourne Ter, Boston","lat":42.34318207172069,"long":-71.13895885933718},
{"service_request_id":"101001035447","status":"open","service_name":"Other","service_code":"4f38920fe75084437f0001a0","description":"Piece of copper roof edge perhaps 20 feet long has blown loose in wind and will fall onto pedestrians on sidewalk on Park Drive - very dangerous!","requested_datetime":"2014-02-24T22:36:41-05:00","updated_datetime":"2014-02-24T22:36:28-05:00","address":"879 Beacon St, Apt 1, Boston","lat":42.34624919940209,"long":-71.10472789597337},
{"service_request_id":"101001035441","status":"open","service_name":"Other","service_code":"4f38920fe75084437f0001a0","description":"Piles of garbage and appliances on property left for weeks","requested_datetime":"2014-02-24T22:12:11-05:00","updated_datetime":"2014-02-24T22:11:56-05:00","address":"223 Amory St Jamaica Plain, MA 02130","lat":42.316379,"long":-71.103474},
{"service_request_id":"101001033766","status":"closed","status_notes":"Case Closed. Case Resolved. 1 vehicle tagged for double parking at this location,will monitor.","service_name":"Other","service_code":"4f38920fe75084437f0001a0","description":"Repeat offender double parks all day all night - tow this guy once and for all","requested_datetime":"2014-02-22T09:28:24-05:00","updated_datetime":"2014-02-24T20:58:12-05:00","address":"459 E 6th St, Boston","lat":42.33293965297115,"long":-71.04220418265261},
{"service_request_id":"101001035401","status":"open","service_name":"Other","service_code":"4f38920fe75084437f0001a0","description":"Regarding your answer of #101001034404, 5 days ago you stated spoke to owner and it would be moved! It's part of the sidewalk,  which is city property not  Charlie the Cleaners property! Just like when homeowners need to shovel our property.. that belongs to the City. Get rid of the plow or Councilor L aMattina will be called","requested_datetime":"2014-02-24T19:15:01-05:00","updated_datetime":"2014-02-24T19:14:53-05:00","address":"1158-1176 Saratoga St Boston, MA 02128","lat":42.384069,"long":-70.999471},
{"service_request_id":"101001035395","status":"open","service_name":"Other","service_code":"4f38920fe75084437f0001a0","description":"Tow- blocking handicap ramp","requested_datetime":"2014-02-24T18:51:37-05:00","updated_datetime":"2014-02-24T18:51:27-05:00","address":"127 Pleasant St, Dorchester, MA, 02125","lat":42.31124756861693,"long":-71.05940259068372},
{"service_request_id":"101001032424","status":"closed","status_notes":"Case Closed. Case Referred to External Agency. DCR jurisidction. Information forwarded to DCR.","service_name":"Other","service_code":"4f38920fe75084437f0001a0","description":"Street lights not functioning. Blinking red and yellow.","requested_datetime":"2014-02-20T23:57:06-05:00","updated_datetime":"2014-02-24T18:42:03-05:00","address":"297\u2013299 Gallivan Blvd, Boston","lat":42.28002829015468,"long":-71.06575883931579},
{"service_request_id":"101001035387","status":"open","service_name":"Other","service_code":"4f38920fe75084437f0001a0","description":"Car partially blocking sidewalk \nThe user entered the address: 11-15 Elmwood Street, Roxbury, MA 02119, USA to see more details visit: http://seeclickfix.com/issues/956976","requested_datetime":"2014-02-24T18:31:01-05:00","updated_datetime":"2014-02-24T18:30:50-05:00","address":"11-15 Elmwood Street, Roxbury, MA 02119, USA","lat":42.330696105957,"long":-71.09423828125},
{"service_request_id":"101001034242","status":"closed","status_notes":"Case Closed. Case Noted. BTD does not install speed bumps on the city streets..","service_name":"Other","service_code":"4f38920fe75084437f0001a0","description":"The intersection of union park and tremont is dangerous for pedestrians, despite the yield signs in the middle of the crosswalks. Please consider installing a speed hump on Tremont St.","requested_datetime":"2014-02-23T10:48:42-05:00","updated_datetime":"2014-02-24T16:30:34-05:00","address":"575 Tremont St, Boston","lat":42.34356901664631,"long":-71.07236575543197},
{"service_request_id":"101001033814","status":"closed","status_notes":"Case Closed. Case Noted. Unable to determine service being requested.  Please resubmit w/ specific info if issue persists.","service_name":"Other","service_code":"4f38920fe75084437f0001a0","requested_datetime":"2014-02-22T11:06:13-05:00","updated_datetime":"2014-02-24T16:22:50-05:00","address":"36 Walnut St, Boston","lat":42.28638445496772,"long":-71.04164678610027},
{"service_request_id":"101001030979","status":"closed","status_notes":"Case Closed. Case Noted. no violation.","service_name":"Other","service_code":"4f38920fe75084437f0001a0","description":"Piles of trash in the alley opening between 895 & 901 Huntington Ave. next collection is not until Friday morning- please cite out too early and in paper bags","requested_datetime":"2014-02-19T19:07:58-05:00","updated_datetime":"2014-02-24T16:10:27-05:00","address":"885 Huntington Ave, Boston","lat":42.33220759579465,"long":-71.11215299027349},
{"service_request_id":"101001031288","status":"closed","status_notes":"Case Closed. Case Noted. cited for trash and debris.","service_name":"Other","service_code":"4f38920fe75084437f0001a0","description":"Improper trash disposal.","requested_datetime":"2014-02-20T09:06:28-05:00","updated_datetime":"2014-02-24T16:09:07-05:00","address":"56 Marion St, Boston","lat":42.37893504094551,"long":-71.03780980228547},
{"service_request_id":"101001033784","status":"closed","status_notes":"Case Closed. Case Invalid. Unable to determine service requested.  Please resubmit w/ specific info if issue persists.","service_name":"Other","service_code":"4f38920fe75084437f0001a0","requested_datetime":"2014-02-22T10:01:08-05:00","updated_datetime":"2014-02-24T16:08:15-05:00","address":"296-C Centre St, Boston","lat":42.32276489030786,"long":-71.102761840514},
{"service_request_id":"101001033504","status":"closed","status_notes":"Case Closed. Case Noted. Issues of an EMERGENCY NATURE should be reported to 911 at the time of the incident.  Please dial 911 if issue persists.","service_name":"Other","service_code":"4f38920fe75084437f0001a0","description":"Very strong gas odor at the bus yard. Even stronger than usual.","requested_datetime":"2014-02-21T17:42:22-05:00","updated_datetime":"2014-02-24T16:02:50-05:00","address":"3585 Washington St, Boston","lat":42.304170295874,"long":-71.10984008100411},
{"service_request_id":"101001028748","status":"closed","status_notes":"Case Closed. Case Noted. no violation, ice was melted aupon arrival.","service_name":"Other","service_code":"4f38920fe75084437f0001a0","description":"Icy sidewalk in front of Nstar building where my employee fell.  \nThe user entered the address: 90 Warrenton Street, Boston, MA 02116, USA to see more details visit: http://seeclickfix.com/issues/944627","requested_datetime":"2014-02-17T13:40:30-05:00","updated_datetime":"2014-02-24T15:49:17-05:00","address":"90 Warrenton Street, Boston, MA 02116, USA","lat":42.3503601537415,"long":-71.0660448242519},
{"service_request_id":"101001035099","status":"closed","status_notes":"Case Closed. Case Resolved. vehicle tagged   tow requested.","service_name":"Other","service_code":"4f38920fe75084437f0001a0","description":"Car parked in crosswalk","requested_datetime":"2014-02-24T13:27:25-05:00","updated_datetime":"2014-02-24T15:46:35-05:00","address":"P St @ E Broadway, Boston","lat":42.33583764991354,"long":-71.02722425396723},
{"service_request_id":"101001035256","status":"open","service_name":"Other","service_code":"4f38920fe75084437f0001a0","description":"This is a really dangerous intersection for pedestrians. There are sidewalks on most of the streets, but there are no crosswalks or crossing signals. To get to the paths along the river, or even to just cross the street, you have to dart across traffic. There are a lot of pedestrians in the area because of the park and the running/biking paths, and I think that there needs to be a safe way for them to cross.","requested_datetime":"2014-02-24T15:32:28-05:00","updated_datetime":"2014-02-24T15:32:19-05:00","address":"Soldiers Field Rd, Boston","lat":42.36156525280988,"long":-71.14571769546616},
{"service_request_id":"101001008885","status":"closed","status_notes":"Case Closed. Case Resolved. towed 2/24.","service_name":"Other","service_code":"4f38920fe75084437f0001a0","description":"Possibly an abandoned car MA55LN40.  Has not moved in 3 weeks.  Never seen it before and doesn't appear to belong to any neighbors.","requested_datetime":"2014-01-20T06:54:14-05:00","updated_datetime":"2014-02-24T14:51:52-05:00","address":"80 Brown Ave, Boston","lat":42.28214644919598,"long":-71.12219176266122},
{"service_request_id":"101001029095","status":"closed","status_notes":"Case Closed. Case Resolved. towed 2/24.","service_name":"Other","service_code":"4f38920fe75084437f0001a0","description":"Abandoned pick-up truck parked on Eldon at Bowdoin Ave. Been out there a few weeks, flat tire front passenger side, obstructing view of intersection for drivers and pedestrians exiting Bowdoin Ave","requested_datetime":"2014-02-18T08:47:59-05:00","updated_datetime":"2014-02-24T14:51:52-05:00","address":"1 Bowdoin Ave Boston, MA 02121","lat":42.303317,"long":-71.077551},
{"service_request_id":"101001034936","status":"closed","status_notes":"Case Closed. Case Resolved. cleaned.","service_name":"Other","service_code":"4f38920fe75084437f0001a0","description":"There is trash everywhere in jp. It is filthy up and down centre street. Looks like no one had come to clean up the bus stops in ages. We call this a world class city? I just got back from Costa Rica and didn't see one piece of litter in 8 days.\n\nKim","requested_datetime":"2014-02-24T11:24:56-05:00","updated_datetime":"2014-02-24T14:42:57-05:00","address":"200 Pond St, Jamaica Plain, MA, 02130","lat":42.312913,"long":-71.121401},
{"service_request_id":"101001034404","status":"closed","status_notes":"Case Closed. Duplicate of Existing Case. this plow is on private property and is not blocking the sidewalk in anyway.","service_name":"Other","service_code":"4f38920fe75084437f0001a0","description":"Regarding case # 101001032455  You are sadly mistaken!  Live extremely close to Charlie Cleaners @ Saratoga & St Edward the plow blade has Not ever been moved.. which leads one to believe you were Never by location after initial visit.. if that ever occurred!","requested_datetime":"2014-02-23T16:51:20-05:00","updated_datetime":"2014-02-24T14:31:51-05:00","address":"1158-1176 Saratoga St Boston, MA 02128","lat":42.384059,"long":-70.999388},
{"service_request_id":"101001034261","status":"closed","status_notes":"Case Closed. Case Resolved. this plow is on private property and is not blocking the sidewalk.","service_name":"Other","service_code":"4f38920fe75084437f0001a0","description":"Snow plow blade STILL on sidewalk at Saratoga & St. Edward.. said you couldn't see it try behind the mailbox! Maybe you need glasses has been there over 3 days. Sending Another photo... plow blade is that yellow thing behind mailbox. Stop lying that you've been by","requested_datetime":"2014-02-23T11:29:01-05:00","updated_datetime":"2014-02-24T14:31:01-05:00","address":"27-35 St Edward Rd Boston, MA 02128","lat":42.385338,"long":-71.002902},
{"service_request_id":"101001034179","status":"closed","status_notes":"Case Closed. Case Resolved. The drainage of the greenway in East Boston is the responsibility of the Boston Parks. They maintain a pump station there. John P. Sullivan,P.E., BCEE. Chief Engineer. Boston Water and Sewer Commission.","service_name":"Other","service_code":"4f38920fe75084437f0001a0","description":"Sewer not draining in the greenway between maverick and sumner st bridges.","requested_datetime":"2014-02-23T07:44:34-05:00","updated_datetime":"2014-02-24T14:28:20-05:00","address":"19 Bremen St, Boston","lat":42.36890940465251,"long":-71.03824079974655},
{"service_request_id":"101001033268","status":"closed","status_notes":"Case Closed. Case Resolved. STREET CLEANED.","service_name":"Other","service_code":"4f38920fe75084437f0001a0","description":"Never clean up their garbage after trash day \n45 strathmore","requested_datetime":"2014-02-21T14:41:47-05:00","updated_datetime":"2014-02-24T14:03:56-05:00","address":"45 Strathmore Rd, Boston","lat":42.33766686530138,"long":-71.14725625149485},
{"service_request_id":"101001034049","status":"closed","status_notes":"Case Closed. Case Resolved. basket empty and clean around area.","service_name":"Other","service_code":"4f38920fe75084437f0001a0","description":"Trash all around receptacles on corner of Beacon St & Ayr Rd","requested_datetime":"2014-02-22T18:21:27-05:00","updated_datetime":"2014-02-24T13:48:18-05:00","address":"4 Ayr Rd, Boston","lat":42.33661489565143,"long":-71.1487108469672},
{"service_request_id":"101001034447","status":"closed","status_notes":"Case Closed. Case Invalid. no shopping cart at this location.","service_name":"Other","service_code":"4f38920fe75084437f0001a0","description":"Abandoned shopping cart. Corner of Crescent and Moseley Streets.","requested_datetime":"2014-02-23T19:08:52-05:00","updated_datetime":"2014-02-24T13:43:51-05:00","address":"26 Crescent Ave, Boston","lat":42.31899327067268,"long":-71.05542785595034},
{"service_request_id":"101001034048","status":"closed","status_notes":"Case Closed. Case Resolved. DUPLICATE TO MAX # 6770172.","service_name":"Other","service_code":"4f38920fe75084437f0001a0","description":"The cover to a high voltage box is broken off it's hinge, the  extreme danger to the public is clear from the picture!","requested_datetime":"2014-02-22T18:21:19-05:00","updated_datetime":"2014-02-24T13:42:41-05:00","address":"5 Dwight St, Boston","lat":42.3441916749227,"long":-71.06788339478399},
{"service_request_id":"101001034126","status":"closed","status_notes":"Case Closed. Case Resolved. Vehicle not in any violation.","service_name":"Other","service_code":"4f38920fe75084437f0001a0","description":"this car has been parked two feet off the curb and nearly blocking my driveway for 3 days.","requested_datetime":"2014-02-22T22:44:15-05:00","updated_datetime":"2014-02-24T13:32:30-05:00","address":"68 Sagamore St, Boston","lat":42.31616766652834,"long":-71.0542923120653},
{"service_request_id":"101001035092","status":"open","service_name":"Other","service_code":"4f38920fe75084437f0001a0","description":"2 (small) loud barking dogs in the driveway of 90 brookley road (between 90 and 92). Dogs left outside all day, sometimes well into the night, and bark loudly for long periods of time.","requested_datetime":"2014-02-24T13:23:40-05:00","updated_datetime":"2014-02-24T13:23:34-05:00","address":"90 Brookley Rd, Boston","lat":42.30313848267279,"long":-71.1055587977772},
{"service_request_id":"101001034050","status":"closed","status_notes":"Case Closed. Case Noted. material,serviced.","service_name":"Other","service_code":"4f38920fe75084437f0001a0","description":"Recycling was never picked up on Friday. Many bags are still on street.","requested_datetime":"2014-02-22T18:23:45-05:00","updated_datetime":"2014-02-24T13:08:39-05:00","address":"37 Tileston St, Boston","lat":42.36572773527917,"long":-71.05417359155437},
{"service_request_id":"101001034327","status":"closed","status_notes":"Case Closed. Case Resolved. Vehicle not at location.","service_name":"Other","service_code":"4f38920fe75084437f0001a0","description":"Reject sticker initial inspect 7/30/13","requested_datetime":"2014-02-23T13:46:13-05:00","updated_datetime":"2014-02-24T12:52:42-05:00","address":"172 South St Jamaica Plain, MA 02130","lat":42.303932,"long":-71.114677},
{"service_request_id":"101001034311","status":"closed","status_notes":"Case Closed. Case Resolved. done tree crew.","service_name":"Other","service_code":"4f38920fe75084437f0001a0","description":"There is a tree in front of 38 Monument Ave in Charlestown that has a large broken branch hanging off that could damage a car if it falls.","requested_datetime":"2014-02-23T13:03:23-05:00","updated_datetime":"2014-02-24T12:52:00-05:00","address":"38 Monument Ave, Boston","lat":42.37472984130005,"long":-71.06187431839685},
{"service_request_id":"101001034344","status":"closed","status_notes":"Case Closed. Case Resolved.","service_name":"Other","service_code":"4f38920fe75084437f0001a0","description":"Jammed Big Belly trash compactor.","requested_datetime":"2014-02-23T14:03:35-05:00","updated_datetime":"2014-02-24T12:11:32-05:00","address":"220-222 Cambridge St Boston, MA 02114","lat":42.361092,"long":-71.066423},
{"service_request_id":"101001034200","status":"closed","status_notes":"Case Closed. Case Resolved.","service_name":"Other","service_code":"4f38920fe75084437f0001a0","description":"Trash at full big belly, at corner of Dartmouth and Montgomery, South End.","requested_datetime":"2014-02-23T09:11:07-05:00","updated_datetime":"2014-02-24T12:07:17-05:00","address":"22\u201360 Montgomery St, Boston","lat":42.34354932585842,"long":-71.0739868879249},
{"service_request_id":"101001034252","status":"closed","status_notes":"Case Closed. Case Resolved.","service_name":"Other","service_code":"4f38920fe75084437f0001a0","description":"Overflowing trash can.","requested_datetime":"2014-02-23T11:07:00-05:00","updated_datetime":"2014-02-24T12:06:09-05:00","address":"557 Tremont St, Boston","lat":42.34386193076651,"long":-71.07197904961143},
{"service_request_id":"101001034365","status":"closed","status_notes":"Case Closed. Case Resolved. its being done now.","service_name":"Other","service_code":"4f38920fe75084437f0001a0","description":"Big belly","requested_datetime":"2014-02-23T14:46:23-05:00","updated_datetime":"2014-02-24T12:05:42-05:00","address":"137\u2013179 Belvidere St, Boston","lat":42.34538203109274,"long":-71.08225853188995},
{"service_request_id":"101001034888","status":"closed","status_notes":"Case Closed. Case Resolved. Sidewalk clear.","service_name":"Other","service_code":"4f38920fe75084437f0001a0","description":"Blocking sidewalk","requested_datetime":"2014-02-24T11:00:48-05:00","updated_datetime":"2014-02-24T11:55:46-05:00","address":"169 W 3rd St, Boston","lat":42.33983719259718,"long":-71.0503156856364},
{"service_request_id":"101001033546","status":"closed","status_notes":"Case Closed. Case Noted.","service_name":"Other","service_code":"4f38920fe75084437f0001a0","description":"Missed trash pick up at 156 Worcester st, 02118-  trash was out last night and not picked up today as it should have been.","requested_datetime":"2014-02-21T19:46:39-05:00","updated_datetime":"2014-02-24T11:13:18-05:00","address":"139 Worcester St, Boston","lat":42.34100923411766,"long":-71.07964974834684},
{"service_request_id":"101001034726","status":"closed","status_notes":"Case Closed. Case Resolved. Vehicle ticketed at 54 Mellen St for rejected sticker.","service_name":"Other","service_code":"4f38920fe75084437f0001a0","description":"Rejected inspection sticker from sept 2013. Parked on Mellen at corner of Montague  Repeat offender still parking on street. Silver Mitsubishi ma plate 425 bg3.","requested_datetime":"2014-02-24T09:36:32-05:00","updated_datetime":"2014-02-24T10:33:36-05:00","address":"17 Roslin St, Boston","lat":42.28597357243833,"long":-71.07041356150079},
{"service_request_id":"101001034644","status":"closed","status_notes":"Case Closed. Case Resolved. Crosswalk clear.","service_name":"Other","service_code":"4f38920fe75084437f0001a0","description":"Van parked in crosswalk broadway and g since sunday","requested_datetime":"2014-02-24T08:43:33-05:00","updated_datetime":"2014-02-24T10:29:54-05:00","address":"2\u201328 G St, Boston","lat":42.33550288120623,"long":-71.0442529711928},
{"service_request_id":"101001033568","status":"closed","status_notes":"Case Closed. Case Noted. material,serviced.","service_name":"Other","service_code":"4f38920fe75084437f0001a0","description":"Missed trash pick up.","requested_datetime":"2014-02-21T20:38:01-05:00","updated_datetime":"2014-02-24T10:27:56-05:00","address":"107 Myrtle St, Boston","lat":42.35934741333347,"long":-71.06842797256174},
{"service_request_id":"101001034665","status":"closed","status_notes":"Case Closed. Case Resolved. Vehicle is active and plates valid until June of 2014.","service_name":"Other","service_code":"4f38920fe75084437f0001a0","description":"Blue-green Volvo S60 is currently in front of 102 Paul Gore St. It has been parking on the street in this area for more than 4 years, and its plates from Idaho expired in '08 or '06.","requested_datetime":"2014-02-24T08:57:38-05:00","updated_datetime":"2014-02-24T10:20:33-05:00","address":"102 Paul Gore St, Boston","lat":42.31884398457807,"long":-71.1065617763414},
{"service_request_id":"101001034417","status":"closed","status_notes":"Case Closed. Case Invalid. does not specify a problem no contact info.","service_name":"Other","service_code":"4f38920fe75084437f0001a0","description":"Big belly","requested_datetime":"2014-02-23T17:40:43-05:00","updated_datetime":"2014-02-24T10:19:16-05:00","address":"557 569a Tremont St, Roxbury","lat":42.34395643700131,"long":-71.0719795525736},
{"service_request_id":"101001034593","status":"closed","status_notes":"Case Closed. Case Resolved.","service_name":"Other","service_code":"4f38920fe75084437f0001a0","description":"Serious litter issue on corner of Centre & Eliot St in JP. Unfortunately this is all too  frequent here in JP. The waste receptacle is far too small ( and open) to handle the volume at this bus stop (located outside a convenient store). Please take note of my request for JP to have big belly trash receptacles installed. I will continue to do my part as a responsible citizen and continue to participate in local trash clean up days! \nThank you,\nSusan Cowley","requested_datetime":"2014-02-24T07:58:54-05:00","updated_datetime":"2014-02-24T10:17:10-05:00","address":"36 Burroughs St, Jamaica Plain, MA, 02130","lat":42.312906,"long":-71.116308},
{"service_request_id":"101001034784","status":"open","service_name":"Other","service_code":"4f38920fe75084437f0001a0","description":"This is a followup with pictures of the violation I received while trying to clean out my dead mothers house in EB. The city got a call from the dirtbag old man next door and had someone from the city come and issue a ticket. I called the mayors office and its like talking to firs graders. No help at all. They should be ashamed of themselves. Thanks Boston for all the help with this matter which was nothing. I will attach pictures to show what Boston is paying people on Sundays to do.","requested_datetime":"2014-02-24T10:11:14-05:00","updated_datetime":"2014-02-24T10:11:13-05:00","address":"Saratoga Street, Boston","lat":42.383571,"long":-71.0176985},
{"service_request_id":"101001034409","status":"closed","status_notes":"Case Closed. Case Resolved.","service_name":"Other","service_code":"4f38920fe75084437f0001a0","description":"Full and overflowing Big Belly trash compactor on the expanse.k","requested_datetime":"2014-02-23T17:02:53-05:00","updated_datetime":"2014-02-24T10:03:37-05:00","address":"Charles River Esplanade Boston, MA 02116","lat":42.354404,"long":-71.082435},
{"service_request_id":"101001033575","status":"closed","status_notes":"Case Closed. Case Noted. material,serviced.","service_name":"Other","service_code":"4f38920fe75084437f0001a0","description":"Our recycling is rarely if ever picked up. 7 Hudson street is a residential building.","requested_datetime":"2014-02-21T21:09:37-05:00","updated_datetime":"2014-02-24T10:00:40-05:00","address":"5 Hudson St, Boston","lat":42.35086447903525,"long":-71.06010750156902},
{"service_request_id":"101001034599","status":"closed","status_notes":"Case Closed. Case Resolved. Vehicle gone. Street clear.","service_name":"Other","service_code":"4f38920fe75084437f0001a0","description":"Car with Canada plates parked in resident only spot. This car is here frequently. Please ticket.","requested_datetime":"2014-02-24T08:11:17-05:00","updated_datetime":"2014-02-24T09:30:53-05:00","address":"83\u201389 Charter St, Boston","lat":42.36774644487455,"long":-71.05551389057484},
{"service_request_id":"101001010546","status":"closed","status_notes":"Case Closed. Case Resolved. not at location 2/19.","service_name":"Other","service_code":"4f38920fe75084437f0001a0","description":"A gray BMW X5 with  MA plate number 122 XX5 has been parked opposite 31 Hereford Street adjacent to public alley 428 for approximately one month. \n\nIt has a Back Bay resident sticker so it is not being ticketed at night. It is parked behind a parking meter so there is enough room for another car to fit in front so that may be why it is not getting ticketed during the day. Thus it has not stood out.\n\nThe car does not seem damaged.\n\nI pointed the car out to two meter maids, who said they would make  note of the car / situation, last Thursday night about 10:00 p.m.  \n\nHopefully the owner of the car is ok and has simply left the car in a spot that goes un ticketed .","requested_datetime":"2014-01-22T20:01:17-05:00","updated_datetime":"2014-02-24T08:30:26-05:00","address":"24\u201328 Hereford St, Boston","lat":42.35038315078437,"long":-71.08642237733577},
{"service_request_id":"101001034572","status":"open","service_name":"Other","service_code":"4f38920fe75084437f0001a0","description":"This is at least the 3rd time this driver has parked on the sidewalk, not in their driveway. It blocks everything and the sidewalk is still very icy and not shoveled.","requested_datetime":"2014-02-24T07:31:29-05:00","updated_datetime":"2014-02-24T07:31:28-05:00","address":"50 Atherton St, Boston","lat":42.31798628349073,"long":-71.1010498367912},
{"service_request_id":"101001034545","status":"open","service_name":"Other","service_code":"4f38920fe75084437f0001a0","description":"It is almost 4am. Garbage shouldn't be collected at this time! This company constantly does pickup early in the mornings. Allied waste management. Please stop them from doing this.","requested_datetime":"2014-02-24T03:58:58-05:00","updated_datetime":"2014-02-24T03:58:57-05:00","address":"215 Harvard Ave, Boston","lat":42.34969035400236,"long":-71.13056293692556},
{"service_request_id":"101001034544","status":"open","service_name":"Other","service_code":"4f38920fe75084437f0001a0","description":"It is 3:45 am in the morning, why is the allied waste management company constantly collecting garbage at this time? The city code states you have to collect after 7am. Please help!","requested_datetime":"2014-02-24T03:48:26-05:00","updated_datetime":"2014-02-24T03:48:25-05:00","address":"1238 Commonwealth Ave, Boston","lat":42.34968898821841,"long":-71.13122192218073},
{"service_request_id":"101001034503","status":"open","service_name":"Other","service_code":"4f38920fe75084437f0001a0","description":"There is a limo parked in the taxi stand in front of the Omni Parker House refusing to move. Please dispatch police. He is pretending to be a taxi and should be given a $500 ticket as the law says. This is a public safety issue.","requested_datetime":"2014-02-23T21:54:46-05:00","updated_datetime":"2014-02-23T21:54:45-05:00","address":"4 Beacon St Suffolk University Suffolk University Law School Boston, MA 02108","lat":42.358,"long":-71.060597},
{"service_request_id":"101001034393","status":"open","service_name":"Other","service_code":"4f38920fe75084437f0001a0","requested_datetime":"2014-02-23T16:28:22-05:00","updated_datetime":"2014-02-23T16:28:21-05:00","address":"60 Averton St, Boston","lat":42.28225645147477,"long":-71.13694961189398},
{"service_request_id":"101001034374","status":"open","service_name":"Other","service_code":"4f38920fe75084437f0001a0","description":"Apparently it's okay to park in all the bus stops on Sundays?! You guys really need to have some parking enforcement on Sundays downtown. I know BTD isn't on duty but the police should be ticketing. Thanks.","requested_datetime":"2014-02-23T15:10:05-05:00","updated_datetime":"2014-02-23T15:10:04-05:00","address":"1\u201399 Otis St, Boston","lat":42.35420466383929,"long":-71.05859130620871},
{"service_request_id":"101001034336","status":"open","service_name":"Other","service_code":"4f38920fe75084437f0001a0","description":"Multiple space savers on street or blocking sidewalk apart from unshoveled sidewalks on street.","requested_datetime":"2014-02-23T13:55:40-05:00","updated_datetime":"2014-02-23T13:55:40-05:00","address":"30 Norfolk St, Boston","lat":42.32889289971658,"long":-71.09140888794427},
{"service_request_id":"101001032420","status":"closed","status_notes":"Case Closed. Case Resolved. upon inspection at said location piece of metal frame removed.made safe.","service_name":"Other","service_code":"4f38920fe75084437f0001a0","description":"Outside 1619 Tremont street the remaining metal bracket has been left and twisted after the solar trash compactor was removed months weeks ago. At this moment it is a sharp piece of shrapnel waiting for a st Patricks day disaster. Please help. Thank you.","requested_datetime":"2014-02-20T23:42:41-05:00","updated_datetime":"2014-02-23T13:43:20-05:00","address":"1619 1621 Tremont St, Mission Hill","lat":42.33378531183264,"long":-71.10340381025584},
{"service_request_id":"101001034310","status":"open","service_name":"Other","service_code":"4f38920fe75084437f0001a0","description":"61 Dix st has left trash and recycling bins out on sidewalk for multiple days now. Completely blocks sidewalk","requested_datetime":"2014-02-23T13:01:22-05:00","updated_datetime":"2014-02-23T13:01:21-05:00","address":"61-63 Dix St Dorchester, MA 02122","lat":42.295605,"long":-71.0587},
{"service_request_id":"101001034304","status":"open","service_name":"Other","service_code":"4f38920fe75084437f0001a0","description":"Illegally parked car. There are plenty of legit spaces nearby. This happens every Sunday by church. Makes it difficult to see around corner Ina high-accident area.","requested_datetime":"2014-02-23T12:52:32-05:00","updated_datetime":"2014-02-23T12:52:31-05:00","address":"51 Cummins Hwy, Boston","lat":42.28528119456303,"long":-71.1264316645627},
{"service_request_id":"101001034293","status":"open","service_name":"Other","service_code":"4f38920fe75084437f0001a0","requested_datetime":"2014-02-23T12:22:41-05:00","updated_datetime":"2014-02-23T12:22:40-05:00","address":"60 Averton St, Boston","lat":42.28226902432952,"long":-71.13685129216978},
{"service_request_id":"101001027348","status":"closed","status_notes":"Case Closed. Case Noted.","service_name":"Other","service_code":"4f38920fe75084437f0001a0","description":"Fire lane? Cedar Lane Way between Mt Veron & Pinknet streets","requested_datetime":"2014-02-14T16:54:53-05:00","updated_datetime":"2014-02-23T12:00:03-05:00","address":"58-60Charles St, Boston, MA, 02114","lat":42.357473,"long":-71.070359},
{"service_request_id":"101001032681","status":"closed","status_notes":"Case Closed. Case Resolved.","service_name":"Other","service_code":"4f38920fe75084437f0001a0","description":"All of train st has space savers. There is no snow!\".","requested_datetime":"2014-02-21T09:15:19-05:00","updated_datetime":"2014-02-23T11:52:34-05:00","address":"43-45Neponset Ave, Dorchester, MA, 02122","lat":42.29595839049881,"long":-71.05487192056239},
{"service_request_id":"101001032754","status":"closed","status_notes":"Case Closed. Case Resolved. pickd up.","service_name":"Other","service_code":"4f38920fe75084437f0001a0","description":"When is the city/Mayor going to do something about the space savers?? They are all over East 7th and Southie! It's not fair to everyone else!","requested_datetime":"2014-02-21T09:35:28-05:00","updated_datetime":"2014-02-23T11:51:33-05:00","address":"595 E 7th St, Boston","lat":42.33226865400732,"long":-71.03644312427313},
{"service_request_id":"101001034250","status":"open","service_name":"Other","service_code":"4f38920fe75084437f0001a0","description":"What is wrong with this app?  It has been working horribly the last few weeks!  Slow won't send, etc!","requested_datetime":"2014-02-23T10:55:20-05:00","updated_datetime":"2014-02-23T10:55:19-05:00","address":"399 Boylston St, Boston","lat":42.3516798159502,"long":-71.07212011708978},
{"service_request_id":"101001034244","status":"open","service_name":"Other","service_code":"4f38920fe75084437f0001a0","description":"Parishioners at St Cecilia park illegally all day Sunday on Belvidere, St Cecilia and Scotia Street. They block fire lanes, loading zones and handicap ramps. Asking them to move only gets swears in response. BTD doesn't ticket Sunday and BFD won't respond. Please help. This is very dangerous.","requested_datetime":"2014-02-23T10:50:21-05:00","updated_datetime":"2014-02-23T10:50:20-05:00","address":"20 Belvidere St, Boston","lat":42.34643383421222,"long":-71.08659625060027},
{"service_request_id":"101001034235","status":"open","service_name":"Other","service_code":"4f38920fe75084437f0001a0","description":"DOT department of trash !  Clean this dump up!  Poor maintenance by you!  Lazy!","requested_datetime":"2014-02-23T10:35:33-05:00","updated_datetime":"2014-02-23T10:35:32-05:00","address":"Frontage Rd, Boston","lat":42.3429113813139,"long":-71.06144752360048},
{"service_request_id":"101001034233","status":"open","service_name":"Other","service_code":"4f38920fe75084437f0001a0","description":"car parked intersection please ticket and tow","requested_datetime":"2014-02-23T10:33:49-05:00","updated_datetime":"2014-02-23T10:33:48-05:00","address":"53 Old Harbor St, Boston","lat":42.33305928280339,"long":-71.04749240919149},
{"service_request_id":"101001034192","status":"open","service_name":"Other","service_code":"4f38920fe75084437f0001a0","description":"Has been in front of Hydrant since Friday.","requested_datetime":"2014-02-23T08:48:41-05:00","updated_datetime":"2014-02-23T08:48:40-05:00","address":"21 Upcrest Rd, Boston","lat":42.35313489124006,"long":-71.16436849357245},
{"service_request_id":"101001034186","status":"open","service_name":"Other","service_code":"4f38920fe75084437f0001a0","description":"I didn't know the Starbucks on Boylston Street allowed dogs. Two dogs in Starbucks when we were there Sunday morning.","requested_datetime":"2014-02-23T08:35:56-05:00","updated_datetime":"2014-02-23T08:35:56-05:00","address":"780 Boylston St, Ste 1, Boston, MA, 02199","lat":42.348733,"long":-71.080398},
{"service_request_id":"101001034053","status":"open","service_name":"Other","service_code":"4f38920fe75084437f0001a0","description":"Car parked on front of Hydrant over 24 hrs.","requested_datetime":"2014-02-22T18:30:53-05:00","updated_datetime":"2014-02-22T18:30:51-05:00","address":"21 Upcrest Rd, Boston","lat":42.35310918286714,"long":-71.16431351621046},
{"service_request_id":"101001031467","status":"closed","status_notes":"Case Closed. Case Resolved.","service_name":"Other","service_code":"4f38920fe75084437f0001a0","description":"The trash cans in Franklin Park are overflowing, haven't been emptied in a long while.","requested_datetime":"2014-02-20T10:31:04-05:00","updated_datetime":"2014-02-22T17:30:23-05:00","address":"Pier Point Rd Boston, MA 02130","lat":42.307196,"long":-71.096741},
{"service_request_id":"101001032455","status":"closed","status_notes":"Case Closed. Case Resolved. went to see if plow was on sidewalk and could not find it.","service_name":"Other","service_code":"4f38920fe75084437f0001a0","description":"Still waiting for plow blade to be moved at Saratoga & St. Edward @ Charlie the Cleaners.. 2 days now! I think a fine would speed things up.. this is ridiculous send someone out again please!.. or send Public Works to pick it up.. it doesn't belong on sidewalk!","requested_datetime":"2014-02-21T04:59:11-05:00","updated_datetime":"2014-02-22T14:39:59-05:00","address":"1071-1089 Bennington St Boston, MA 02128","lat":42.386947,"long":-71.005327},
{"service_request_id":"101001033900","status":"open","service_name":"Other","service_code":"4f38920fe75084437f0001a0","description":"Building I'm disrepair. Falling debris will hit someone on sidewalk below. 593 tremont st","requested_datetime":"2014-02-22T13:18:54-05:00","updated_datetime":"2014-02-22T13:18:53-05:00","address":"593 Tremont St, Boston","lat":42.34324492901777,"long":-71.07323172510763},
{"service_request_id":"101001033816","status":"open","service_name":"Other","service_code":"4f38920fe75084437f0001a0","description":"Random car on the wrong side of the road in the middle of the road. Oakman @ Walnut Street. Did not want to call 911 . Thank you as always.","requested_datetime":"2014-02-22T11:12:29-05:00","updated_datetime":"2014-02-22T11:12:28-05:00","address":"1\u201399 Oakman St, Boston","lat":42.28629218570938,"long":-71.04159045038915},
{"service_request_id":"101001032477","status":"closed","status_notes":"Case Closed. Case Resolved. no space saver at location.","service_name":"Other","service_code":"4f38920fe75084437f0001a0","description":"Another space saver","requested_datetime":"2014-02-21T07:43:49-05:00","updated_datetime":"2014-02-22T10:10:15-05:00","address":"36 Manthorne Rd, West Roxbury, MA, 02132","lat":42.28851869738031,"long":-71.15074214184465},
{"service_request_id":"101001032476","status":"closed","status_notes":"Case Closed. Case Resolved. no space saver in street.","service_name":"Other","service_code":"4f38920fe75084437f0001a0","description":"Space savers. Still out.","requested_datetime":"2014-02-21T07:42:26-05:00","updated_datetime":"2014-02-22T10:02:35-05:00","address":"67 Manthorne Rd, Boston","lat":42.28909605009083,"long":-71.15114826701492},
{"service_request_id":"101001033733","status":"open","service_name":"Other","service_code":"4f38920fe75084437f0001a0","description":"Illegal parking on sidewalk in Columbus park. These guys are here every day blocking the way. Probably a fire hazard too.","requested_datetime":"2014-02-22T08:32:56-05:00","updated_datetime":"2014-02-22T08:32:55-05:00","address":"234 Atlantic Ave, Boston","lat":42.36053735021721,"long":-71.05177631608308},
{"service_request_id":"101001033347","status":"closed","status_notes":"Case Closed. Case Noted. Trash picked up at corner of intersection by 126 state st on 2/22/14 at 7:11 a.m.","service_name":"Other","service_code":"4f38920fe75084437f0001a0","description":"Missed trash pickup","requested_datetime":"2014-02-21T15:18:20-05:00","updated_datetime":"2014-02-22T07:30:13-05:00","address":"122-126 State St, Boston","lat":42.35918846317963,"long":-71.05468476630723},
{"service_request_id":"101001033344","status":"closed","status_notes":"Case Closed. Case Resolved.","service_name":"Other","service_code":"4f38920fe75084437f0001a0","description":"Parking space savers and garbage in the street on Brooks Street between Condor and Falcon","requested_datetime":"2014-02-21T15:15:50-05:00","updated_datetime":"2014-02-21T23:22:44-05:00","address":"227 Brooks St, Boston","lat":42.38233768847616,"long":-71.03607508361043},
{"service_request_id":"101001033606","status":"open","service_name":"Other","service_code":"4f38920fe75084437f0001a0","description":"Car blocking hydrant and part of the sidewalk. Makes it hard to turn left or cross the street.","requested_datetime":"2014-02-21T23:16:33-05:00","updated_datetime":"2014-02-21T23:16:22-05:00","address":"619 E 2nd St Boston, MA 02127","lat":42.337304,"long":-71.037554},
{"service_request_id":"101001032463","status":"closed","status_notes":"Case Closed. Case Referred to External Agency. police matter.","service_name":"Other","service_code":"4f38920fe75084437f0001a0","description":"Trucks parked & blocking intersection / traffic","requested_datetime":"2014-02-21T06:48:45-05:00","updated_datetime":"2014-02-21T18:43:24-05:00","address":"325 Riverway, Boston","lat":42.33621792871723,"long":-71.11003087840146},
{"service_request_id":"101001033470","status":"closed","status_notes":"Case Closed. Case Noted. Insufficient information to take action.  Unable to determine address for \"lot\" being referenced.  Call in to (617) 635-4500 to report directly if issue persists.","service_name":"Other","service_code":"4f38920fe75084437f0001a0","description":"This front end loader is leaking oil onto the ground. I traced the stream from a catch basin at the School Street entrance of the lot to this machine. (Approx. 75 yards away).","requested_datetime":"2014-02-21T16:54:59-05:00","updated_datetime":"2014-02-21T17:07:50-05:00","address":"58\u201398 W School St, Boston","lat":42.37502917451801,"long":-71.067621824737},
{"service_request_id":"101001032500","status":"closed","status_notes":"Case Closed. Case Noted. Call in to 617-635-4500 to schedule a pickup at curb.  PWD not allowed to go onto private property.","service_name":"Other","service_code":"4f38920fe75084437f0001a0","description":"Someone dumped their old window air conditioning unit on our property","requested_datetime":"2014-02-21T08:12:22-05:00","updated_datetime":"2014-02-21T17:04:35-05:00","address":"160 W Newton St, Boston","lat":42.34247940005939,"long":-71.07804251419785},
{"service_request_id":"101001032478","status":"closed","status_notes":"Case Closed. Case Noted. PWD was notified.  Thank you...","service_name":"Other","service_code":"4f38920fe75084437f0001a0","description":"Stuck truck on ice. Been there 20+ minutes spinning wheels","requested_datetime":"2014-02-21T07:45:46-05:00","updated_datetime":"2014-02-21T16:50:20-05:00","address":"1\u201399 Butler Sq, Boston","lat":42.35955510816515,"long":-71.05458672603362},
{"service_request_id":"101001032488","status":"closed","status_notes":"Case Closed. Case Noted. PWD was notified.  Thank you...","service_name":"Other","service_code":"4f38920fe75084437f0001a0","description":"Overflowing trash barrel in Franklin Park","requested_datetime":"2014-02-21T07:57:41-05:00","updated_datetime":"2014-02-21T16:49:08-05:00","address":"91 Glen Rd Jamaica Plain, MA 02130","lat":42.307323,"long":-71.09876},
{"service_request_id":"101001030986","status":"closed","status_notes":"Case Closed. Case Resolved. no space saver was found at location.","service_name":"Other","service_code":"4f38920fe75084437f0001a0","description":"Space saver! 2-19  7:35 pm","requested_datetime":"2014-02-19T19:17:45-05:00","updated_datetime":"2014-02-21T15:21:09-05:00","address":"344 Saratoga St, Boston","lat":42.37886386884372,"long":-71.0305568576533},
{"service_request_id":"101001033351","status":"open","service_name":"Other","service_code":"4f38920fe75084437f0001a0","description":"Scary guy on drugs disturbing peace on greenway. Khaki pants and black hoodie.potentially violent.","requested_datetime":"2014-02-21T15:20:58-05:00","updated_datetime":"2014-02-21T15:20:57-05:00","address":"I-93 N, Boston","lat":42.35935632712738,"long":-71.05197144686116},
{"service_request_id":"101001033178","status":"closed","status_notes":"Case Closed. Case Resolved. space savers removed.","service_name":"Other","service_code":"4f38920fe75084437f0001a0","description":"Spacesavers still out long after 48 hours.","requested_datetime":"2014-02-21T13:55:15-05:00","updated_datetime":"2014-02-21T14:36:01-05:00","address":"92 Rossmore Rd Boston, MA 02130","lat":42.303495,"long":-71.105123},
{"service_request_id":"101001032938","status":"closed","status_notes":"Case Closed. Case Resolved. BASKET EMPTY.","service_name":"Other","service_code":"4f38920fe75084437f0001a0","description":"Trash again over flowing","requested_datetime":"2014-02-21T11:55:49-05:00","updated_datetime":"2014-02-21T14:35:49-05:00","address":"Intersection Of Commonwealth Ave & Harvard Ave, Allston","lat":42.35009123575163,"long":-71.13096610649589},
{"service_request_id":"101001033030","status":"closed","status_notes":"Case Closed. Case Resolved.","service_name":"Other","service_code":"4f38920fe75084437f0001a0","description":"Recycling full","requested_datetime":"2014-02-21T12:28:12-05:00","updated_datetime":"2014-02-21T14:26:50-05:00","address":"127-145 Greenbaum St, Boston","lat":42.34219372276435,"long":-71.05733712210419},
{"service_request_id":"101001032405","status":"closed","status_notes":"Case Closed. Case Invalid.","service_name":"Other","service_code":"4f38920fe75084437f0001a0","description":"The street need the large rocks removed, PLEASE!!!","requested_datetime":"2014-02-20T22:30:19-05:00","updated_datetime":"2014-02-21T14:23:53-05:00","address":"63 Roanoke Rd, Boston","lat":42.2711898,"long":-71.11072418333333},
{"service_request_id":"101001032419","status":"closed","status_notes":"Case Closed. Case Invalid. Comments noted.","service_name":"Other","service_code":"4f38920fe75084437f0001a0","description":"To the people complaining about space savers....SHUT THE F*CK UP!  your just complaining bc you were to lazy to shovel your spot out...And now you wanna come along and take a nicely shoveled spot and expect that person to have to park in a spot covered in snow NOT RIGHT. so here's and idea try SHOVELING!!","requested_datetime":"2014-02-20T23:28:59-05:00","updated_datetime":"2014-02-21T13:42:23-05:00","address":"934-934A Dorchester Ave, Boston","lat":42.31895581964027,"long":-71.05671350576577},
{"service_request_id":"101001032413","status":"closed","status_notes":"Case Closed. Case Noted. Issues of an emergency nature should be called in directly to (617) 635-4500 for immediate response.  I hope this information is helpful.","service_name":"Other","service_code":"4f38920fe75084437f0001a0","description":"Pickup truck parked on corner blocking intersection and handicapped ramp. Plate number not visible.  Please do something about this ASAP!","requested_datetime":"2014-02-20T22:50:53-05:00","updated_datetime":"2014-02-21T13:41:50-05:00","address":"38 Glencoe St Boston, MA 02135","lat":42.354259,"long":-71.148451},
{"service_request_id":"101001032302","status":"closed","status_notes":"Case Closed. Case Noted. Insufficient information to take action.  Please resubmit w/ more specific info or call in to (617) 635-4500 to file report.","service_name":"Other","service_code":"4f38920fe75084437f0001a0","description":"There is an open grate in the alley and it is very dark as there are no business entrances right there!","requested_datetime":"2014-02-20T18:19:49-05:00","updated_datetime":"2014-02-21T13:39:17-05:00","address":"127-131 Clarendon St, Boston","lat":42.34827873300979,"long":-71.07380278415147},
{"service_request_id":"101001032300","status":"closed","status_notes":"Case Closed. Case Noted. Issues of an emergency nature should be reported directly by phone at (617) 635-4500 for immediate response.  I hope this information is helpful.","service_name":"Other","service_code":"4f38920fe75084437f0001a0","description":"Power outage. 1575 - 1579 Centre St Roslindale.","requested_datetime":"2014-02-20T18:16:12-05:00","updated_datetime":"2014-02-21T13:37:53-05:00","address":"1571 Centre St, 1, Roslindale, MA, 02132","lat":42.289512,"long":-71.142164},
{"service_request_id":"101001033149","status":"open","service_name":"Other","service_code":"4f38920fe75084437f0001a0","description":"Speeding cars on Gardner street","requested_datetime":"2014-02-21T13:32:36-05:00","updated_datetime":"2014-02-21T13:32:35-05:00","address":"35-43 Gardner St Boston, MA 02134","lat":42.353603,"long":-71.129414},
{"service_request_id":"101001033143","status":"open","service_name":"Other","service_code":"4f38920fe75084437f0001a0","description":"Police station trash overflow for a few days now","requested_datetime":"2014-02-21T13:30:02-05:00","updated_datetime":"2014-02-21T13:30:00-05:00","address":"2\u201398 Plympton St, Boston","lat":42.33967370357582,"long":-71.06892409741046},
{"service_request_id":"101001031673","status":"closed","status_notes":"Case Closed. Case Resolved.","service_name":"Other","service_code":"4f38920fe75084437f0001a0","description":"Illegal space savers in almost every single spot. I have submitted this report twice before and both times, it has been closed without ANY action. the street is completely lined with cones, buckets, and trash!! please remove the illegal space savers!","requested_datetime":"2014-02-20T11:36:08-05:00","updated_datetime":"2014-02-21T13:09:36-05:00","address":"9 Willis St, Boston","lat":42.31801046173623,"long":-71.05969386283131},
{"service_request_id":"101001029860","status":"closed","status_notes":"Case Closed. Case Invalid. Lincoln Place is a private way and not under COB jurisdiction.  I hope this information is helpful.","service_name":"Other","service_code":"4f38920fe75084437f0001a0","description":"Hi there. Lincoln Place has been closed off on one end with ballasts. This is a public alleyway, not a private driveway. The ballasts have been placed on the West Springfield end of Lincoln Place. What is the procedure to re-open this public thoroughfare?","requested_datetime":"2014-02-18T19:59:13-05:00","updated_datetime":"2014-02-21T12:55:16-05:00","address":"98 Lincoln Pl Boston, MA 02118","lat":42.337307,"long":-71.076598},
{"service_request_id":"101001032278","status":"closed","status_notes":"Case Closed. Case Noted. Parking Enforcement notified and will monitor area.","service_name":"Other","service_code":"4f38920fe75084437f0001a0","description":"Multiple cars making zero attempt to park out of the right travel lane. Please tow.","requested_datetime":"2014-02-20T17:27:52-05:00","updated_datetime":"2014-02-21T12:33:18-05:00","address":"1954 Commonwealth Ave, Boston","lat":42.3391547852023,"long":-71.15667177772636},
{"service_request_id":"101001033026","status":"open","service_name":"Other","service_code":"4f38920fe75084437f0001a0","description":"House was just solder rural dumpster outside working till 10pm at night no building permits visible","requested_datetime":"2014-02-21T12:27:49-05:00","updated_datetime":"2014-02-21T12:27:48-05:00","address":"30 Shepard St, Boston","lat":42.34680158818688,"long":-71.15059729488573},
{"service_request_id":"101001031749","status":"closed","status_notes":"Case Closed. Case Resolved. space savers removed.","service_name":"Other","service_code":"4f38920fe75084437f0001a0","description":"Space savers on a 50 deg day!","requested_datetime":"2014-02-20T12:04:12-05:00","updated_datetime":"2014-02-21T11:58:08-05:00","address":"60 Carolina Ave, Boston","lat":42.30792012069589,"long":-71.11290050677127},
{"service_request_id":"101001031755","status":"closed","status_notes":"Case Closed. Case Resolved. space savers removed.","service_name":"Other","service_code":"4f38920fe75084437f0001a0","description":"Space savers on a 50 deg day!","requested_datetime":"2014-02-20T12:06:33-05:00","updated_datetime":"2014-02-21T11:57:49-05:00","address":"9 Lee St, Boston","lat":42.30755995031659,"long":-71.11191194511119},
{"service_request_id":"101001015933","status":"closed","status_notes":"Case Closed. Case Noted. unable to locate tvs and tire.  will continue to monitor location.","service_name":"Other","service_code":"4f38920fe75084437f0001a0","description":"Abandoned TV, tires and electrical wires on sidewalk where cars park.   \nThe user entered the address: 24-98 Proctor Street, Boston, MA 02119, USA to see more details visit: http://seeclickfix.com/issues/919860","requested_datetime":"2014-01-31T08:00:35-05:00","updated_datetime":"2014-02-21T11:20:33-05:00","address":"24-98 Proctor Street, Boston, MA 02119, USA","lat":42.3267981561005,"long":-71.0695202785773},
{"service_request_id":"101001031026","status":"closed","status_notes":"Case Closed. Case Resolved.","service_name":"Other","service_code":"4f38920fe75084437f0001a0","requested_datetime":"2014-02-19T20:20:12-05:00","updated_datetime":"2014-02-21T11:20:11-05:00","address":"6-8 Edwin St, Boston","lat":42.28900484744673,"long":-71.06299482292594},
{"service_request_id":"101001031028","status":"closed","status_notes":"Case Closed. Case Resolved.","service_name":"Other","service_code":"4f38920fe75084437f0001a0","description":"More than 2 dozen space markers on the full length of Edwin st.","requested_datetime":"2014-02-19T20:21:17-05:00","updated_datetime":"2014-02-21T11:19:54-05:00","address":"6-8 Edwin St, Boston","lat":42.28900484744673,"long":-71.06299482292594},
{"service_request_id":"101001031038","status":"closed","status_notes":"Case Closed. Case Noted.","service_name":"Other","service_code":"4f38920fe75084437f0001a0","description":"Someone has blocked several parking spaces with cones. If this is National Grid's parking, doesn't National Grid need to request construction parking signs from City and pay like everyone else?","requested_datetime":"2014-02-19T20:58:41-05:00","updated_datetime":"2014-02-21T09:15:07-05:00","address":"1\u2013197 Union Wharf, Boston","lat":42.36531826205772,"long":-71.05100199586809},
{"service_request_id":"101001030957","status":"closed","status_notes":"Case Closed. Case Resolved. Vehicle not at location.","service_name":"Other","service_code":"4f38920fe75084437f0001a0","description":"This car, 4X5290, has been parking in the middle of the street on Woodlawn for a few weeks now. The street is a dead-end one, and making a three point turn at the end is how cars turn around to go down the street. This car has been blocking the three point turn access area for weeks.","requested_datetime":"2014-02-19T18:38:48-05:00","updated_datetime":"2014-02-21T09:12:26-05:00","address":"74 Woodlawn St, Boston","lat":42.29783405088102,"long":-71.1110595893777},
{"service_request_id":"101001032213","status":"closed","status_notes":"Case Closed. Case Noted.","service_name":"Other","service_code":"4f38920fe75084437f0001a0","description":"Space savers on E. Fourth St. From G St. To I St. Come on... Enough is Enough... PLEASE REMOVE...","requested_datetime":"2014-02-20T15:58:45-05:00","updated_datetime":"2014-02-21T08:58:15-05:00","address":"539 E 4th St Boston, MA 02127","lat":42.334492,"long":-71.043164},
{"service_request_id":"101001032089","status":"closed","status_notes":"Case Closed. Case Resolved.","service_name":"Other","service_code":"4f38920fe75084437f0001a0","description":"Space savers","requested_datetime":"2014-02-20T15:05:22-05:00","updated_datetime":"2014-02-21T08:57:59-05:00","address":"692 E 5th St, Boston","lat":42.33399107731325,"long":-71.03254856550943},
{"service_request_id":"101001032090","status":"closed","status_notes":"Case Closed. Case Resolved.","service_name":"Other","service_code":"4f38920fe75084437f0001a0","description":"Space saver","requested_datetime":"2014-02-20T15:05:54-05:00","updated_datetime":"2014-02-21T08:57:33-05:00","address":"695 E 5th St, Boston","lat":42.33397689856506,"long":-71.03228478696556},
{"service_request_id":"101001032091","status":"closed","status_notes":"Case Closed. Case Noted.","service_name":"Other","service_code":"4f38920fe75084437f0001a0","description":"Space saver","requested_datetime":"2014-02-20T15:06:25-05:00","updated_datetime":"2014-02-21T08:56:51-05:00","address":"700 E 5th St, Boston","lat":42.33402051951036,"long":-71.03211312554085},
{"service_request_id":"101001032125","status":"closed","status_notes":"Case Closed. Case Noted.","service_name":"Other","service_code":"4f38920fe75084437f0001a0","description":"Space saver","requested_datetime":"2014-02-20T15:15:49-05:00","updated_datetime":"2014-02-21T08:56:40-05:00","address":"683 E 5th St, Boston","lat":42.33396646801419,"long":-71.03259642604996},
{"service_request_id":"101001032513","status":"open","service_name":"Other","service_code":"4f38920fe75084437f0001a0","description":"Nstar blocking sidewalk again","requested_datetime":"2014-02-21T08:24:41-05:00","updated_datetime":"2014-02-21T08:24:39-05:00","address":"80 W Dedham St, Boston","lat":42.34189344108323,"long":-71.07322921051744},
{"service_request_id":"101001031104","status":"closed","status_notes":"Case Closed. Case Invalid.","service_name":"Other","service_code":"4f38920fe75084437f0001a0","description":"Illegal spot saving in several spaces along the street","requested_datetime":"2014-02-20T06:40:01-05:00","updated_datetime":"2014-02-21T08:05:12-05:00","address":"8 Charles St, Boston","lat":42.25139319434972,"long":-71.13173061988422},
{"service_request_id":"101001030376","status":"closed","status_notes":"Case Closed. Case Resolved. There was an emergency sewer break on Old Harbor St. When the inspector spoke to the contractor yesterday, he had a valid permit on hand. The Boston Police were called, but did not fill the detail until the afternoon. The CIU will monitor the workzone until the work is completed. Mark Cardarelli. Supervisor of Utility Coordination and Compliance. Boston Public Works Department. 617-635-4951 Office. 617-438-8517 Cell.","service_name":"Other","service_code":"4f38920fe75084437f0001a0","description":"contractor doing excavating work on sidewalk and street with no police detail for public's safety or traffic control and didn't see any posted permits","requested_datetime":"2014-02-19T11:30:03-05:00","updated_datetime":"2014-02-21T07:54:08-05:00","address":"106 Old Harbor St, Boston","lat":42.33144456278831,"long":-71.04735532414185},
{"service_request_id":"101001031223","status":"closed","status_notes":"Case Closed. Case Noted. Officer checked entire area of Danforth and Paul Gore and could not locate vehicle. Better location needed,.","service_name":"Other","service_code":"4f38920fe75084437f0001a0","description":"This car has been parking on Paul Gore Street for over four years with out-of-state plates. Notice that its plate expired in 2006.","requested_datetime":"2014-02-20T08:44:52-05:00","updated_datetime":"2014-02-21T06:58:06-05:00","address":"136\u2013198 Paul Gore St, Boston","lat":42.31807576030708,"long":-71.10488489276833},
{"service_request_id":"101001031160","status":"closed","status_notes":"Case Closed. Case Noted. This street is done every day.","service_name":"Other","service_code":"4f38920fe75084437f0001a0","description":"Residents parking violation","requested_datetime":"2014-02-20T08:04:58-05:00","updated_datetime":"2014-02-21T05:52:54-05:00","address":"17 Haynes St Boston, MA 02128","lat":42.366781,"long":-71.038246},
{"service_request_id":"101001031161","status":"closed","status_notes":"Case Closed. Case Resolved. HP Ramp is covered in snow not enforcable.","service_name":"Other","service_code":"4f38920fe75084437f0001a0","description":"In top of a snow bank at a handicap ramp now for 2 days now no ticket yet!!!!!","requested_datetime":"2014-02-20T08:05:33-05:00","updated_datetime":"2014-02-20T22:41:19-05:00","address":"170 W 7th St, Boston","lat":42.33483906373599,"long":-71.05138756341398},
{"service_request_id":"101001032231","status":"closed","status_notes":"Case Closed. Case Resolved. sent car to move out vehicles in bike lane will monitor closely.","service_name":"Other","service_code":"4f38920fe75084437f0001a0","description":"Cars always parked in bike lane infront of this building.","requested_datetime":"2014-02-20T16:15:54-05:00","updated_datetime":"2014-02-20T19:07:44-05:00","address":"750 Albany St, Boston","lat":42.33461719475904,"long":-71.07176631695691},
{"service_request_id":"101001031752","status":"closed","status_notes":"Case Closed. Duplicate of Existing Case.","service_name":"Other","service_code":"4f38920fe75084437f0001a0","description":"Space savers on a 50 deg day!","requested_datetime":"2014-02-20T12:04:33-05:00","updated_datetime":"2014-02-20T17:21:10-05:00","address":"74 Carolina Ave, Boston","lat":42.3079066677413,"long":-71.11276312737829},
{"service_request_id":"101001031753","status":"closed","status_notes":"Case Closed. Duplicate of Existing Case.","service_name":"Other","service_code":"4f38920fe75084437f0001a0","description":"Space savers on a 50 deg day!","requested_datetime":"2014-02-20T12:04:50-05:00","updated_datetime":"2014-02-20T17:20:57-05:00","address":"60 Carolina Ave, Boston","lat":42.30789300523913,"long":-71.11279296695358},
{"service_request_id":"101001031087","status":"closed","status_notes":"Case Closed. Duplicate of Existing Case.","service_name":"Other","service_code":"4f38920fe75084437f0001a0","description":"Plow blade abandoned on sidewalk at Saratoga & St.Edward near US Mailbox at Charlie the cleaners East Boston.Reported yesterday.. Still there.. what gives!!","requested_datetime":"2014-02-20T04:50:19-05:00","updated_datetime":"2014-02-20T17:11:08-05:00","address":"1071-1089 Bennington St Boston, MA 02128","lat":42.386965,"long":-71.005312},
{"service_request_id":"101001032275","status":"open","service_name":"Other","service_code":"4f38920fe75084437f0001a0","description":"Burned out house since dec 13. ISD Informed the neighbors that it will be another 10 days until project\nPride can seal off this back entrance. In the meantime people have been going in and out if the house taking copper, and there are condoms scattered around. There are also\nHazardous materials under the snow at this point. We can't wait another 10 days. This is a problem.","requested_datetime":"2014-02-20T17:10:18-05:00","updated_datetime":"2014-02-20T17:10:12-05:00","address":"24 Moultrie St, Boston","lat":42.29165907690867,"long":-71.06904017248598},
{"service_request_id":"101001031059","status":"closed","status_notes":"Case Closed. Case Noted. Location will be monitored by Parking Enforcement.","service_name":"Other","service_code":"4f38920fe75084437f0001a0","description":"Car parked in street. No one can get by.","requested_datetime":"2014-02-19T22:36:41-05:00","updated_datetime":"2014-02-20T17:08:32-05:00","address":"Intersection of Brayton Rd and Glenley Ter and Breck Ave, Brighton, MA","lat":42.348441,"long":-71.169785},
{"service_request_id":"101001031050","status":"closed","status_notes":"Case Closed. Case Resolved. Issue resolved.","service_name":"Other","service_code":"4f38920fe75084437f0001a0","description":"Looks like trash collection was missed for entire street.","requested_datetime":"2014-02-19T21:58:22-05:00","updated_datetime":"2014-02-20T17:07:59-05:00","address":"16 Parkton Rd, Boston","lat":42.32189863665237,"long":-71.1141235876483},
{"service_request_id":"101001030973","status":"closed","status_notes":"Case Closed. Case Noted. As stated on the Citizens Connect app, cases of an emergency nature should be called into 911 immediately.  Contact 911 if issue persists.","service_name":"Other","service_code":"4f38920fe75084437f0001a0","description":"Strong smell of natural gAs","requested_datetime":"2014-02-19T18:58:26-05:00","updated_datetime":"2014-02-20T16:59:45-05:00","address":"76\u2013182 Atherton St, Boston","lat":42.31842163954146,"long":-71.10158988281256},
{"service_request_id":"101001027457","status":"closed","status_notes":"Case Closed. Case Resolved. all set.","service_name":"Other","service_code":"4f38920fe75084437f0001a0","description":"Damaged bike rack in Adams Park near Washington and Cummins Highway intersection","requested_datetime":"2014-02-14T20:57:05-05:00","updated_datetime":"2014-02-20T14:28:15-05:00","address":"4241-4247 Washington St Boston, MA 02131","lat":42.286608,"long":-71.128253},
{"service_request_id":"101001032025","status":"open","service_name":"Other","service_code":"4f38920fe75084437f0001a0","description":"Unshovelled, impassable sidewalk","requested_datetime":"2014-02-20T14:28:01-05:00","updated_datetime":"2014-02-20T14:27:55-05:00","address":"23 Haynes St Boston, MA 02128","lat":42.366686,"long":-71.038111},
{"service_request_id":"101001028720","status":"closed","status_notes":"Case Closed. Case Resolved. There was a malfunctioning pedestrian push button which has been repaired.","service_name":"Other","service_code":"4f38920fe75084437f0001a0","description":"Mistimed yet again. Washington not even getting 15s of green per cycle.","requested_datetime":"2014-02-17T12:59:17-05:00","updated_datetime":"2014-02-20T13:43:34-05:00","address":"Washington St, Boston","lat":42.3437704797018,"long":-71.1428975739361},
{"service_request_id":"101001030918","status":"closed","status_notes":"Case Closed. Case Noted. Comment noted.","service_name":"Other","service_code":"4f38920fe75084437f0001a0","description":"Atlantic Wharf wins an Olympic GOLD MEDAL for snow removal! More sweeping than a manic curling tournament. Their people work very hard in nasty weather. A big public thank you!","requested_datetime":"2014-02-19T17:34:18-05:00","updated_datetime":"2014-02-20T13:11:59-05:00","address":"290 Congress St Boston, MA 02210","lat":42.352968,"long":-71.05279},
{"service_request_id":"101001030881","status":"closed","status_notes":"Case Closed. Case Noted. Unable to determine service being requested.  Please resubmit if issue persists.","service_name":"Other","service_code":"4f38920fe75084437f0001a0","description":"Blue Honda Fit Lic HP 795G parked on Grovenor St. on left side between HP signs around corner from 14 Pond St., JP \nThe user entered the address: 14 Pond Street corner of Grovenor St. on left side at Handicapped Signs blue Honda Fit, Lic HP795G, Jamaica Plain , Massachusetts to see more details visit: http://seeclickfix.com/issues/947626","requested_datetime":"2014-02-19T17:00:49-05:00","updated_datetime":"2014-02-20T12:34:18-05:00","address":"14 Pond Street corner of Grovenor St. on left side at Handicapped Signs blue Honda Fit, Lic HP795G, Jamaica Plain , Massachusetts","lat":42.3097365,"long":-71.1151431},
{"service_request_id":"101001031145","status":"closed","status_notes":"Case Closed. Case Resolved.","service_name":"Other","service_code":"4f38920fe75084437f0001a0","description":"Black ice everywhere. Need salt and sand.","requested_datetime":"2014-02-20T07:37:46-05:00","updated_datetime":"2014-02-20T12:31:57-05:00","address":"2\u20138 W School St, Boston","lat":42.37631611529959,"long":-71.0659586638874},
{"service_request_id":"101001030675","status":"closed","status_notes":"Case Closed. Case Noted. BTD enforcement will monitor area for future infractions.  I hope this information is helpful.","service_name":"Other","service_code":"4f38920fe75084437f0001a0","description":"Blocking street so that others are unable to pass and declining to move. No detail. License no 79293","requested_datetime":"2014-02-19T14:33:07-05:00","updated_datetime":"2014-02-20T12:27:56-05:00","address":"51\u201353 W Newton St, Boston","lat":42.33991728235048,"long":-71.07477805913801},
{"service_request_id":"101000819531","status":"closed","status_notes":"Case Closed. Case Resolved.","service_name":"Other","service_code":"4f38920fe75084437f0001a0","description":"Damage metal plate cover, on the corner of Chatham and Merchants Row","requested_datetime":"2013-04-09T11:50:56-04:00","updated_datetime":"2014-02-20T12:15:00-05:00","address":"21 Merchants Row Boston, MA 02109","lat":42.359446,"long":-71.055527},
{"service_request_id":"101001031272","status":"closed","status_notes":"Case Closed. Case Resolved. has been removed.","service_name":"Other","service_code":"4f38920fe75084437f0001a0","description":"Space saver out for months","requested_datetime":"2014-02-20T09:01:47-05:00","updated_datetime":"2014-02-20T12:10:17-05:00","address":"16 Millmont St Boston, MA 02119","lat":42.327989,"long":-71.091281},
{"service_request_id":"101001025322","status":"closed","status_notes":"Case Closed. Case Resolved.","service_name":"Other","service_code":"4f38920fe75084437f0001a0","description":"Rods sticking up in sidewalk - dangerous for tripping.","requested_datetime":"2014-02-13T08:48:59-05:00","updated_datetime":"2014-02-20T11:54:57-05:00","address":"40 Cross St, Boston","lat":42.36318695362877,"long":-71.05672683573427},
{"service_request_id":"101001031738","status":"open","service_name":"Other","service_code":"4f38920fe75084437f0001a0","description":"99 myrtle/constant trash violations","requested_datetime":"2014-02-20T11:53:45-05:00","updated_datetime":"2014-02-20T11:53:39-05:00","address":"99 Hf Myrtle St, Boston","lat":42.35937343914281,"long":-71.06815866201285},
{"service_request_id":"101001031596","status":"open","service_name":"Other","service_code":"4f38920fe75084437f0001a0","description":"Dangerous snow/ice hanging off roof, melting and causing sidewalk to freeze","requested_datetime":"2014-02-20T11:17:14-05:00","updated_datetime":"2014-02-20T11:17:09-05:00","address":"789 Saratoga St, East Boston","lat":42.384118609106,"long":-71.01616482916816},
{"service_request_id":"101001015891","status":"closed","status_notes":"Case Closed. Case Resolved. complete 2-20-14.","service_name":"Other","service_code":"4f38920fe75084437f0001a0","description":"Commonwealth Ave Mall tree lights still out between Clarendon and Dartmouth.","requested_datetime":"2014-01-31T05:33:18-05:00","updated_datetime":"2014-02-20T11:08:08-05:00","address":"112\u2013152 Commonwealth Ave, Boston","lat":42.35192343596587,"long":-71.07721991843644},
{"service_request_id":"101001030391","status":"closed","status_notes":"Case Closed. Case Resolved.","service_name":"Other","service_code":"4f38920fe75084437f0001a0","description":"Parking cones and items reserving spots for past two weeks.","requested_datetime":"2014-02-19T11:42:37-05:00","updated_datetime":"2014-02-20T10:54:59-05:00","address":"126 King St, Boston","lat":42.29421501402807,"long":-71.05313502266455},
{"service_request_id":"101001030814","status":"closed","status_notes":"Case Closed. Case Resolved. done.","service_name":"Other","service_code":"4f38920fe75084437f0001a0","description":"Space savers for a half block! Please remove there ain't been a declared snow emergency for over 2 weeks.","requested_datetime":"2014-02-19T15:51:54-05:00","updated_datetime":"2014-02-20T10:46:50-05:00","address":"19 Rowena St, Boston","lat":42.2848119486471,"long":-71.06271419682344},
{"service_request_id":"101001025276","status":"closed","status_notes":"Case Closed. Case Resolved. done.","service_name":"Other","service_code":"4f38920fe75084437f0001a0","description":"Bags of old wall to wall carpet dumped on/in the street, presumably by this service master truck. Not a trash day and wouldn't this qualify as commercial waste as it is refuse from this business vehicle?","requested_datetime":"2014-02-13T07:44:23-05:00","updated_datetime":"2014-02-20T09:24:40-05:00","address":"80 E Brookline St, Boston","lat":42.33757240236023,"long":-71.0700651258892},
{"service_request_id":"101001030461","status":"closed","status_notes":"Case Closed. Case Resolved. done.","service_name":"Other","service_code":"4f38920fe75084437f0001a0","description":"Overflowing trash in a grocery carriage next to South Station bus stop on Summer Street.","requested_datetime":"2014-02-19T12:20:21-05:00","updated_datetime":"2014-02-20T09:23:13-05:00","address":"245 Summer St, Boston","lat":42.3520374670926,"long":-71.05437451615731},
{"service_request_id":"101001029071","status":"closed","status_notes":"Case Closed. Case Resolved.","service_name":"Other","service_code":"4f38920fe75084437f0001a0","description":"Tv on sidewalk","requested_datetime":"2014-02-18T08:34:55-05:00","updated_datetime":"2014-02-20T09:20:51-05:00","address":"2\u201398 Unity Ct, Boston","lat":42.36626298903157,"long":-71.05395100792083},